{"sender": "venice_092", "receiver": "broadcast", "tick": 30, "intent": "status_update", "payload": {"status": "alert", "place_name": "Istituto Ospedaliero Fatebenefratelli", "sector": "health", "coordinates": {"lon": 12.3305534, "lat": 45.4471781}, "vulnerability": 0.3, "capabilities": ["medical_care", "emergency_treatment", "patient_care", "life_support", "surgical_services", "intensive_care"]}, "success": true}
{"sender": "venice_116", "receiver": "broadcast", "tick": 30, "intent": "status_update", "payload": {"status": "alert", "place_name": "Ospedale SS. Giovanni e Paolo", "sector": "health", "coordinates": {"lon": 12.3415, "lat": 45.4398}, "vulnerability": 0.2, "capabilities": ["medical_care", "emergency_treatment", "patient_care", "life_support", "surgical_services", "intensive_care", "trauma_center", "helicopter_landing"]}, "success": false}
{"sender": "venice_120", "receiver": "broadcast", "tick": 30, "intent": "status_update", "payload": {"status": "alert", "place_name": "SUEM 118 Venezia", "sector": "health", "coordinates": {"lon": 12.3265, "lat": 45.4355}, "vulnerability": 0.3, "capabilities": ["emergency_response", "patient_transport", "advanced_life_support", "medical_evacuation", "water_rescue"]}, "success": true}
{"sender": "venice_117", "receiver": "broadcast", "tick": 30, "intent": "status_update", "payload": {"status": "alert", "place_name": "Pronto Soccorso Civile", "sector": "health", "coordinates": {"lon": 12.3298, "lat": 45.4445}, "vulnerability": 0.3, "capabilities": ["emergency_response", "first_aid", "patient_transport", "medical_evacuation", "triage"]}, "success": true}
{"sender": "venice_089", "receiver": "broadcast", "tick": 60, "intent": "status_update", "payload": {"status": "critical", "place_name": "Santa Maria Elisabetta", "sector": "transport", "coordinates": {"lon": 12.3691404, "lat": 45.4177591}, "vulnerability": 0.5, "capabilities": ["mobility", "access", "evacuation_route"]}, "success": true}
{"sender": "venice_005", "receiver": "broadcast", "tick": 60, "intent": "status_update", "payload": {"status": "critical", "place_name": "Ex-convento della Celestia", "sector": "heritage", "coordinates": {"lon": 12.3499276, "lat": 45.4375213}, "vulnerability": 0.7, "capabilities": ["cultural_value", "tourism", "historical_data"]}, "success": false}
{"sender": "venice_074", "receiver": "broadcast", "tick": 60, "intent": "status_update", "payload": {"status": "critical", "place_name": "Palazzo Mocenigo", "sector": "heritage", "coordinates": {"lon": 12.3298209, "lat": 45.4406526}, "vulnerability": 0.7, "capabilities": ["cultural_value", "tourism", "historical_data"]}, "success": true}
{"sender": "venice_010", "receiver": "broadcast", "tick": 60, "intent": "status_update", "payload": {"status": "critical", "place_name": "Carlo Goldoni", "sector": "heritage", "coordinates": {"lon": 12.3368549, "lat": 45.4377586}, "vulnerability": 0.7, "capabilities": ["cultural_value", "tourism", "historical_data"]}, "success": true}
{"sender": "venice_099", "receiver": "broadcast", "tick": 60, "intent": "status_update", "payload": {"status": "critical", "place_name": "Museo Wagner", "sector": "heritage", "coordinates": {"lon": 12.3296051, "lat": 45.442529}, "vulnerability": 0.7, "capabilities": ["cultural_value", "tourism", "historical_data", "exhibition_space", "public_education"]}, "success": true}
{"sender": "venice_108", "receiver": "broadcast", "tick": 60, "intent": "status_update", "payload": {"status": "critical", "place_name": "Museo diocesano", "sector": "heritage", "coordinates": {"lon": 12.3353098, "lat": 45.4307404}, "vulnerability": 0.7, "capabilities": ["cultural_value", "tourism", "historical_data", "exhibition_space", "public_education"]}, "success": true}
{"sender": "venice_035", "receiver": "broadcast", "tick": 60, "intent": "status_update", "payload": {"status": "critical", "place_name": "San Nicolo' Marco Polo", "sector": "transport", "coordinates": {"lon": 12.3765941, "lat": 45.422329}, "vulnerability": 0.5, "capabilities": ["mobility", "access", "evacuation_route"]}, "success": true}
{"sender": "venice_003", "receiver": "broadcast", "tick": 60, "intent": "status_update", "payload": {"status": "critical", "place_name": "Palazzo Giustiniani", "sector": "heritage", "coordinates": {"lon": 12.3365387, "lat": 45.4322495}, "vulnerability": 0.7, "capabilities": ["cultural_value", "tourism", "historical_data"]}, "success": false}
{"sender": "venice_002", "receiver": "broadcast", "tick": 60, "intent": "status_update", "payload": {"status": "critical", "place_name": "Palazzo Tiepolo", "sector": "heritage", "coordinates": {"lon": 12.3354605, "lat": 45.4320713}, "vulnerability": 0.7, "capabilities": ["cultural_value", "tourism", "historical_data"]}, "success": false}
{"sender": "venice_109", "receiver": "broadcast", "tick": 60, "intent": "status_update", "payload": {"status": "critical", "place_name": "Leonardo da Vinci", "sector": "heritage", "coordinates": {"lon": 12.3252338, "lat": 45.433058}, "vulnerability": 0.7, "capabilities": ["cultural_value", "tourism", "historical_data"]}, "success": true}
{"sender": "venice_114", "receiver": "broadcast", "tick": 60, "intent": "status_update", "payload": {"status": "critical", "place_name": "Vigili Urbani", "sector": "transport", "coordinates": {"lon": 12.3249314, "lat": 45.4240903}, "vulnerability": 0.5, "capabilities": ["mobility", "access", "evacuation_route", "emergency_response", "rescue", "pumping"]}, "success": true}
{"sender": "venice_083", "receiver": "broadcast", "tick": 60, "intent": "status_update", "payload": {"status": "critical", "place_name": "D'Annunzio Spiagge", "sector": "transport", "coordinates": {"lon": 12.3772955, "lat": 45.4157791}, "vulnerability": 0.5, "capabilities": ["mobility", "access", "evacuation_route"]}, "success": true}
{"sender": "venice_086", "receiver": "broadcast", "tick": 60, "intent": "status_update", "payload": {"status": "critical", "place_name": "Gran Viale", "sector": "transport", "coordinates": {"lon": 12.3722296, "lat": 45.4159384}, "vulnerability": 0.5, "capabilities": ["mobility", "access", "evacuation_route"]}, "success": true}
{"sender": "venice_092", "receiver": "broadcast", "tick": 60, "intent": "status_update", "payload": {"status": "critical", "place_name": "Istituto Ospedaliero Fatebenefratelli", "sector": "health", "coordinates": {"lon": 12.3305534, "lat": 45.4471781}, "vulnerability": 0.3, "capabilities": ["medical_care", "emergency_treatment", "patient_care", "life_support", "surgical_services", "intensive_care"]}, "success": true}
{"sender": "venice_058", "receiver": "broadcast", "tick": 60, "intent": "status_update", "payload": {"status": "critical", "place_name": "Venezia - Piazzale Roma", "sector": "transport", "coordinates": {"lon": 12.3189955, "lat": 45.4374989}, "vulnerability": 0.5, "capabilities": ["mobility", "access", "evacuation_route"]}, "success": true}
{"sender": "venice_095", "receiver": "broadcast", "tick": 60, "intent": "status_update", "payload": {"status": "critical", "place_name": "Palazzo Zaguri", "sector": "heritage", "coordinates": {"lon": 12.3318999, "lat": 45.4326886}, "vulnerability": 0.7, "capabilities": ["cultural_value", "tourism", "historical_data"]}, "success": true}
{"sender": "venice_093", "receiver": "broadcast", "tick": 60, "intent": "status_update", "payload": {"status": "critical", "place_name": "Palazzo Soranzo Van Axel", "sector": "heritage", "coordinates": {"lon": 12.3395572, "lat": 45.4394631}, "vulnerability": 0.7, "capabilities": ["cultural_value", "tourism", "historical_data"]}, "success": true}
{"sender": "venice_066", "receiver": "broadcast", "tick": 60, "intent": "status_update", "payload": {"status": "critical", "place_name": "Casa di Carlo Goldoni", "sector": "heritage", "coordinates": {"lon": 12.3282611, "lat": 45.4361536}, "vulnerability": 0.7, "capabilities": ["cultural_value", "tourism", "historical_data"]}, "success": true}
{"sender": "venice_060", "receiver": "broadcast", "tick": 60, "intent": "status_update", "payload": {"status": "critical", "place_name": "Museo Correr", "sector": "heritage", "coordinates": {"lon": 12.3371838, "lat": 45.4335995}, "vulnerability": 0.7, "capabilities": ["cultural_value", "tourism", "historical_data", "exhibition_space", "public_education"]}, "success": true}
{"sender": "venice_078", "receiver": "broadcast", "tick": 60, "intent": "status_update", "payload": {"status": "critical", "place_name": "Scuola Grande di San Marco", "sector": "heritage", "coordinates": {"lon": 12.3414791, "lat": 45.4397895}, "vulnerability": 0.7, "capabilities": ["cultural_value", "tourism", "historical_data", "shelter_space", "community_gathering"]}, "success": true}
{"sender": "venice_100", "receiver": "broadcast", "tick": 60, "intent": "status_update", "payload": {"status": "critical", "place_name": "Polizia Locale Venezia", "sector": "transport", "coordinates": {"lon": 12.3096447, "lat": 45.4428748}, "vulnerability": 0.5, "capabilities": ["mobility", "access", "evacuation_route"]}, "success": true}
{"sender": "venice_001", "receiver": "broadcast", "tick": 60, "intent": "status_update", "payload": {"status": "critical", "place_name": "Palazzo Moro", "sector": "heritage", "coordinates": {"lon": 12.3268449, "lat": 45.4327816}, "vulnerability": 0.7, "capabilities": ["cultural_value", "tourism", "historical_data"]}, "success": true}
{"sender": "venice_119", "receiver": "broadcast", "tick": 60, "intent": "status_update", "payload": {"status": "critical", "place_name": "Centro Medico Castello", "sector": "health", "coordinates": {"lon": 12.3485, "lat": 45.4365}, "vulnerability": 0.4, "capabilities": ["primary_care", "urgent_care", "medical_consultation", "diagnostic_services"]}, "success": true}
{"sender": "venice_007", "receiver": "broadcast", "tick": 60, "intent": "status_update", "payload": {"status": "critical", "place_name": "Chiesa di San Lazzaro dei Mendicanti", "sector": "heritage", "coordinates": {"lon": 12.3426397, "lat": 45.4411855}, "vulnerability": 0.7, "capabilities": ["cultural_value", "tourism", "historical_data"]}, "success": true}
{"sender": "venice_041", "receiver": "broadcast", "tick": 60, "intent": "status_update", "payload": {"status": "critical", "place_name": "Gallo Bragadin", "sector": "transport", "coordinates": {"lon": 12.3675881, "lat": 45.4132702}, "vulnerability": 0.5, "capabilities": ["mobility", "access", "evacuation_route"]}, "success": true}
{"sender": "venice_106", "receiver": "broadcast", "tick": 60, "intent": "status_update", "payload": {"status": "critical", "place_name": "Opera Bevilacqua La Masa", "sector": "heritage", "coordinates": {"lon": 12.3373678, "lat": 45.4333405}, "vulnerability": 0.7, "capabilities": ["cultural_value", "tourism", "historical_data"]}, "success": true}
{"sender": "venice_022", "receiver": "broadcast", "tick": 60, "intent": "status_update", "payload": {"status": "critical", "place_name": "Palazzo Dandolo", "sector": "heritage", "coordinates": {"lon": 12.3420398, "lat": 45.4341427}, "vulnerability": 0.7, "capabilities": ["cultural_value", "tourism", "historical_data"]}, "success": true}
{"sender": "venice_110", "receiver": "broadcast", "tick": 60, "intent": "status_update", "payload": {"status": "critical", "place_name": "ATVO Aiport Express", "sector": "transport", "coordinates": {"lon": 12.3185722, "lat": 45.4378034}, "vulnerability": 0.5, "capabilities": ["mobility", "access", "evacuation_route"]}, "success": true}
{"sender": "venice_065", "receiver": "broadcast", "tick": 60, "intent": "status_update", "payload": {"status": "critical", "place_name": "Venezia Tronchetto", "sector": "transport", "coordinates": {"lon": 12.3078759, "lat": 45.442074}, "vulnerability": 0.5, "capabilities": ["mobility", "access", "evacuation_route"]}, "success": true}
{"sender": "venice_080", "receiver": "broadcast", "tick": 60, "intent": "status_update", "payload": {"status": "critical", "place_name": "Santa Maria Elisabetta", "sector": "transport", "coordinates": {"lon": 12.3691404, "lat": 45.4177591}, "vulnerability": 0.5, "capabilities": ["mobility", "access", "evacuation_route"]}, "success": true}
{"sender": "venice_115", "receiver": "broadcast", "tick": 60, "intent": "status_update", "payload": {"status": "critical", "place_name": "Carabinieri", "sector": "transport", "coordinates": {"lon": 12.3044705, "lat": 45.4402948}, "vulnerability": 0.5, "capabilities": ["mobility", "access", "evacuation_route", "emergency_response", "coordination", "security"]}, "success": true}
{"sender": "venice_032", "receiver": "broadcast", "tick": 60, "intent": "status_update", "payload": {"status": "critical", "place_name": "Rimorchiatore", "sector": "heritage", "coordinates": {"lon": 12.367636, "lat": 45.4325118}, "vulnerability": 0.7, "capabilities": ["cultural_value", "tourism", "historical_data"]}, "success": false}
{"sender": "venice_121", "receiver": "broadcast", "tick": 60, "intent": "status_update", "payload": {"status": "critical", "place_name": "Laboratorio Analisi San Polo", "sector": "health", "coordinates": {"lon": 12.3325, "lat": 45.4385}, "vulnerability": 0.6, "capabilities": ["medical_testing", "blood_analysis", "emergency_diagnostics", "pathology_services"]}, "success": true}
{"sender": "venice_034", "receiver": "broadcast", "tick": 60, "intent": "status_update", "payload": {"status": "critical", "place_name": "San Nicolo' Aquileia", "sector": "transport", "coordinates": {"lon": 12.3749089, "lat": 45.4197547}, "vulnerability": 0.5, "capabilities": ["mobility", "access", "evacuation_route"]}, "success": true}
{"sender": "venice_024", "receiver": "broadcast", "tick": 60, "intent": "status_update", "payload": {"status": "critical", "place_name": "Vittorio Emanuele II", "sector": "heritage", "coordinates": {"lon": 12.3433444, "lat": 45.433896}, "vulnerability": 0.7, "capabilities": ["cultural_value", "tourism", "historical_data"]}, "success": true}
{"sender": "venice_120", "receiver": "broadcast", "tick": 60, "intent": "status_update", "payload": {"status": "critical", "place_name": "SUEM 118 Venezia", "sector": "health", "coordinates": {"lon": 12.3265, "lat": 45.4355}, "vulnerability": 0.3, "capabilities": ["emergency_response", "patient_transport", "advanced_life_support", "medical_evacuation", "water_rescue"]}, "success": true}
{"sender": "venice_020", "receiver": "broadcast", "tick": 60, "intent": "status_update", "payload": {"status": "critical", "place_name": "Colonna di San Marco", "sector": "heritage", "coordinates": {"lon": 12.3399094, "lat": 45.4333494}, "vulnerability": 0.7, "capabilities": ["cultural_value", "tourism", "historical_data"]}, "success": true}
{"sender": "venice_055", "receiver": "broadcast", "tick": 60, "intent": "status_update", "payload": {"status": "critical", "place_name": "Guardia di Finanza", "sector": "transport", "coordinates": {"lon": 12.3309131, "lat": 45.4424311}, "vulnerability": 0.5, "capabilities": ["mobility", "access", "evacuation_route"]}, "success": true}
{"sender": "venice_117", "receiver": "broadcast", "tick": 60, "intent": "status_update", "payload": {"status": "critical", "place_name": "Pronto Soccorso Civile", "sector": "health", "coordinates": {"lon": 12.3298, "lat": 45.4445}, "vulnerability": 0.3, "capabilities": ["emergency_response", "first_aid", "patient_transport", "medical_evacuation", "triage"]}, "success": true}
{"sender": "venice_011", "receiver": "broadcast", "tick": 60, "intent": "status_update", "payload": {"status": "critical", "place_name": "Palazzo Ducale", "sector": "heritage", "coordinates": {"lon": 12.3403366, "lat": 45.4342135}, "vulnerability": 0.7, "capabilities": ["cultural_value", "tourism", "historical_data"]}, "success": true}
{"sender": "venice_030", "receiver": "broadcast", "tick": 60, "intent": "status_update", "payload": {"status": "critical", "place_name": "Il nuovo trionfo", "sector": "heritage", "coordinates": {"lon": 12.336844, "lat": 45.4310532}, "vulnerability": 0.7, "capabilities": ["cultural_value", "tourism", "historical_data"]}, "success": false}
{"sender": "venice_076", "receiver": "broadcast", "tick": 60, "intent": "status_update", "payload": {"status": "critical", "place_name": "Negozio Olivetti", "sector": "heritage", "coordinates": {"lon": 12.3375316, "lat": 45.4341532}, "vulnerability": 0.7, "capabilities": ["cultural_value", "tourism", "historical_data"]}, "success": true}
{"sender": "venice_040", "receiver": "broadcast", "tick": 60, "intent": "status_update", "payload": {"status": "critical", "place_name": "San Nicolo' Cipro", "sector": "transport", "coordinates": {"lon": 12.3774986, "lat": 45.4241895}, "vulnerability": 0.5, "capabilities": ["mobility", "access", "evacuation_route"]}, "success": true}
{"sender": "venice_063", "receiver": "broadcast", "tick": 60, "intent": "status_update", "payload": {"status": "critical", "place_name": "Museo della Musica", "sector": "heritage", "coordinates": {"lon": 12.33154, "lat": 45.4330292}, "vulnerability": 0.7, "capabilities": ["cultural_value", "tourism", "historical_data", "exhibition_space", "public_education"]}, "success": true}
{"sender": "venice_045", "receiver": "broadcast", "tick": 60, "intent": "status_update", "payload": {"status": "critical", "place_name": "San Nicolo' Cipro", "sector": "transport", "coordinates": {"lon": 12.3774986, "lat": 45.4241895}, "vulnerability": 0.5, "capabilities": ["mobility", "access", "evacuation_route"]}, "success": true}
{"sender": "venice_004", "receiver": "broadcast", "tick": 60, "intent": "status_update", "payload": {"status": "critical", "place_name": "Palazzo Treves De Bonfilio", "sector": "heritage", "coordinates": {"lon": 12.3356915, "lat": 45.4322759}, "vulnerability": 0.7, "capabilities": ["cultural_value", "tourism", "historical_data"]}, "success": true}
{"sender": "venice_084", "receiver": "broadcast", "tick": 60, "intent": "status_update", "payload": {"status": "critical", "place_name": "Marconi Fiume", "sector": "transport", "coordinates": {"lon": 12.3727632, "lat": 45.4105517}, "vulnerability": 0.5, "capabilities": ["mobility", "access", "evacuation_route"]}, "success": true}
{"sender": "venice_075", "receiver": "broadcast", "tick": 60, "intent": "status_update", "payload": {"status": "critical", "place_name": "TIM Future Center", "sector": "heritage", "coordinates": {"lon": 12.3361098, "lat": 45.4367261}, "vulnerability": 0.7, "capabilities": ["cultural_value", "tourism", "historical_data"]}, "success": true}
{"sender": "venice_012", "receiver": "broadcast", "tick": 60, "intent": "status_update", "payload": {"status": "critical", "place_name": "Casa di Tintoretto", "sector": "heritage", "coordinates": {"lon": 12.332427, "lat": 45.4453565}, "vulnerability": 0.7, "capabilities": ["cultural_value", "tourism", "historical_data"]}, "success": true}
{"sender": "venice_094", "receiver": "broadcast", "tick": 60, "intent": "status_update", "payload": {"status": "critical", "place_name": "Polizia Municipale", "sector": "transport", "coordinates": {"lon": 12.3236734, "lat": 45.4339942}, "vulnerability": 0.5, "capabilities": ["mobility", "access", "evacuation_route"]}, "success": true}
{"sender": "venice_042", "receiver": "broadcast", "tick": 60, "intent": "status_update", "payload": {"status": "critical", "place_name": "D'Annunzio Spiagge", "sector": "transport", "coordinates": {"lon": 12.3772955, "lat": 45.4157791}, "vulnerability": 0.5, "capabilities": ["mobility", "access", "evacuation_route"]}, "success": true}
{"sender": "venice_048", "receiver": "broadcast", "tick": 60, "intent": "status_update", "payload": {"status": "critical", "place_name": "Gran Viale", "sector": "transport", "coordinates": {"lon": 12.3722296, "lat": 45.4159384}, "vulnerability": 0.5, "capabilities": ["mobility", "access", "evacuation_route"]}, "success": true}
{"sender": "venice_056", "receiver": "broadcast", "tick": 60, "intent": "status_update", "payload": {"status": "critical", "place_name": "Prefettura di Venezia", "sector": "transport", "coordinates": {"lon": 12.3318856, "lat": 45.4316095}, "vulnerability": 0.5, "capabilities": ["mobility", "access", "evacuation_route"]}, "success": true}
{"sender": "venice_073", "receiver": "broadcast", "tick": 60, "intent": "status_update", "payload": {"status": "critical", "place_name": "Leonardo da Vinci", "sector": "heritage", "coordinates": {"lon": 12.3252338, "lat": 45.433058}, "vulnerability": 0.7, "capabilities": ["cultural_value", "tourism", "historical_data"]}, "success": true}
{"sender": "venice_072", "receiver": "broadcast", "tick": 60, "intent": "status_update", "payload": {"status": "critical", "place_name": "Guardia di Finanza I gruppo Venezia", "sector": "transport", "coordinates": {"lon": 12.3368939, "lat": 45.4389659}, "vulnerability": 0.5, "capabilities": ["mobility", "access", "evacuation_route"]}, "success": false}
{"sender": "venice_069", "receiver": "broadcast", "tick": 60, "intent": "status_update", "payload": {"status": "critical", "place_name": "Museo d'Arte Orientale", "sector": "heritage", "coordinates": {"lon": 12.3316183, "lat": 45.4412042}, "vulnerability": 0.7, "capabilities": ["cultural_value", "tourism", "historical_data", "exhibition_space", "public_education"]}, "success": true}
{"sender": "venice_101", "receiver": "broadcast", "tick": 60, "intent": "status_update", "payload": {"status": "critical", "place_name": "Museo della farmacia", "sector": "heritage", "coordinates": {"lon": 12.3415589, "lat": 45.4395923}, "vulnerability": 0.7, "capabilities": ["cultural_value", "tourism", "historical_data", "exhibition_space", "public_education"]}, "success": true}
{"sender": "venice_053", "receiver": "broadcast", "tick": 60, "intent": "status_update", "payload": {"status": "critical", "place_name": "Vigili del Fuoco", "sector": "transport", "coordinates": {"lon": 12.3261434, "lat": 45.4351879}, "vulnerability": 0.5, "capabilities": ["mobility", "access", "evacuation_route", "emergency_response", "rescue", "pumping"]}, "success": true}
{"sender": "venice_102", "receiver": "broadcast", "tick": 60, "intent": "status_update", "payload": {"status": "critical", "place_name": "Polizia Municipale Sezione Cannaregio", "sector": "transport", "coordinates": {"lon": 12.321704, "lat": 45.4432379}, "vulnerability": 0.5, "capabilities": ["mobility", "access", "evacuation_route"]}, "success": true}
{"sender": "venice_006", "receiver": "broadcast", "tick": 60, "intent": "status_update", "payload": {"status": "critical", "place_name": "Palazzo Erizzo", "sector": "heritage", "coordinates": {"lon": 12.3484866, "lat": 45.4345344}, "vulnerability": 0.7, "capabilities": ["cultural_value", "tourism", "historical_data"]}, "success": true}
{"sender": "venice_085", "receiver": "broadcast", "tick": 60, "intent": "status_update", "payload": {"status": "critical", "place_name": "Gran Viale S.M.E. - Incr. via Zara", "sector": "transport", "coordinates": {"lon": 12.37334, "lat": 45.4156005}, "vulnerability": 0.5, "capabilities": ["mobility", "access", "evacuation_route"]}, "success": true}
{"sender": "venice_031", "receiver": "broadcast", "tick": 60, "intent": "status_update", "payload": {"status": "critical", "place_name": "Biblioteca galleggiante", "sector": "heritage", "coordinates": {"lon": 12.378844, "lat": 45.4376319}, "vulnerability": 0.7, "capabilities": ["cultural_value", "tourism", "historical_data"]}, "success": true}
{"sender": "venice_091", "receiver": "broadcast", "tick": 60, "intent": "status_update", "payload": {"status": "critical", "place_name": "Fondazione Querini Stampalia", "sector": "heritage", "coordinates": {"lon": 12.3410349, "lat": 45.4364575}, "vulnerability": 0.7, "capabilities": ["cultural_value", "tourism", "historical_data"]}, "success": true}
{"sender": "venice_008", "receiver": "broadcast", "tick": 60, "intent": "status_update", "payload": {"status": "critical", "place_name": "Scuola Grande San Marco", "sector": "heritage", "coordinates": {"lon": 12.341515, "lat": 45.4397882}, "vulnerability": 0.7, "capabilities": ["cultural_value", "tourism", "historical_data", "shelter_space", "community_gathering"]}, "success": true}
{"sender": "venice_061", "receiver": "broadcast", "tick": 60, "intent": "status_update", "payload": {"status": "critical", "place_name": "Museo archeologico nazionale di Venezia", "sector": "heritage", "coordinates": {"lon": 12.338889, "lat": 45.43372}, "vulnerability": 0.7, "capabilities": ["cultural_value", "tourism", "historical_data", "exhibition_space", "public_education", "cultural_preservation", "shelter_space"]}, "success": true}
{"sender": "venice_019", "receiver": "broadcast", "tick": 60, "intent": "status_update", "payload": {"status": "critical", "place_name": "Palazzo Bellavite", "sector": "heritage", "coordinates": {"lon": 12.3312859, "lat": 45.4329455}, "vulnerability": 0.7, "capabilities": ["cultural_value", "tourism", "historical_data"]}, "success": true}
{"sender": "venice_054", "receiver": "broadcast", "tick": 60, "intent": "status_update", "payload": {"status": "critical", "place_name": "Museo di Storia Naturale di Venezia", "sector": "heritage", "coordinates": {"lon": 12.3285362, "lat": 45.4416653}, "vulnerability": 0.7, "capabilities": ["cultural_value", "tourism", "historical_data", "exhibition_space", "public_education"]}, "success": true}
{"sender": "venice_059", "receiver": "broadcast", "tick": 60, "intent": "status_update", "payload": {"status": "critical", "place_name": "Museo di Fisica \"Anton Maria Traversi\"", "sector": "heritage", "coordinates": {"lon": 12.3367169, "lat": 45.4435058}, "vulnerability": 0.7, "capabilities": ["cultural_value", "tourism", "historical_data", "exhibition_space", "public_education"]}, "success": true}
{"sender": "venice_062", "receiver": "broadcast", "tick": 60, "intent": "status_update", "payload": {"status": "critical", "place_name": "Guardia di Finanza Comando Regionale del Veneto", "sector": "transport", "coordinates": {"lon": 12.3293372, "lat": 45.4377798}, "vulnerability": 0.5, "capabilities": ["mobility", "access", "evacuation_route"]}, "success": false}
{"sender": "venice_016", "receiver": "broadcast", "tick": 60, "intent": "status_update", "payload": {"status": "critical", "place_name": "Museo Ebraico", "sector": "heritage", "coordinates": {"lon": 12.3271807, "lat": 45.4451347}, "vulnerability": 0.7, "capabilities": ["cultural_value", "tourism", "historical_data", "exhibition_space", "public_education"]}, "success": true}
{"sender": "venice_036", "receiver": "broadcast", "tick": 60, "intent": "status_update", "payload": {"status": "critical", "place_name": "Gallo Bragadin", "sector": "transport", "coordinates": {"lon": 12.3675881, "lat": 45.4132702}, "vulnerability": 0.5, "capabilities": ["mobility", "access", "evacuation_route"]}, "success": true}
{"sender": "venice_017", "receiver": "broadcast", "tick": 60, "intent": "status_update", "payload": {"status": "critical", "place_name": "Campanile di San Marco", "sector": "heritage", "coordinates": {"lon": 12.3390443, "lat": 45.4340361}, "vulnerability": 0.7, "capabilities": ["cultural_value", "tourism", "historical_data"]}, "success": true}
{"sender": "venice_070", "receiver": "broadcast", "tick": 60, "intent": "status_update", "payload": {"status": "critical", "place_name": "Liberta' Santa Chiara", "sector": "transport", "coordinates": {"lon": 12.3155979, "lat": 45.4410189}, "vulnerability": 0.5, "capabilities": ["mobility", "access", "evacuation_route"]}, "success": true}
{"sender": "venice_113", "receiver": "broadcast", "tick": 60, "intent": "status_update", "payload": {"status": "critical", "place_name": "Giardini del Redentore", "sector": "heritage", "coordinates": {"lon": 12.332629, "lat": 45.4249094}, "vulnerability": 0.7, "capabilities": ["cultural_value", "tourism", "historical_data"]}, "success": true}
{"sender": "venice_021", "receiver": "broadcast", "tick": 60, "intent": "status_update", "payload": {"status": "critical", "place_name": "Colonna di San Teodoro", "sector": "heritage", "coordinates": {"lon": 12.3396561, "lat": 45.4332846}, "vulnerability": 0.7, "capabilities": ["cultural_value", "tourism", "historical_data"]}, "success": true}
{"sender": "venice_050", "receiver": "broadcast", "tick": 60, "intent": "status_update", "payload": {"status": "critical", "place_name": "D'Annunzio Pola", "sector": "transport", "coordinates": {"lon": 12.3792664, "lat": 45.4178735}, "vulnerability": 0.5, "capabilities": ["mobility", "access", "evacuation_route"]}, "success": true}
{"sender": "venice_116", "receiver": "broadcast", "tick": 60, "intent": "status_update", "payload": {"status": "critical", "place_name": "Ospedale SS. Giovanni e Paolo", "sector": "health", "coordinates": {"lon": 12.3415, "lat": 45.4398}, "vulnerability": 0.2, "capabilities": ["medical_care", "emergency_treatment", "patient_care", "life_support", "surgical_services", "intensive_care", "trauma_center", "helicopter_landing"]}, "success": true}
{"sender": "venice_105", "receiver": "broadcast", "tick": 60, "intent": "status_update", "payload": {"status": "critical", "place_name": "Human Safety Net", "sector": "heritage", "coordinates": {"lon": 12.3375912, "lat": 45.4343296}, "vulnerability": 0.7, "capabilities": ["cultural_value", "tourism", "historical_data"]}, "success": true}
{"sender": "venice_087", "receiver": "broadcast", "tick": 60, "intent": "status_update", "payload": {"status": "critical", "place_name": "Marconi Fiume", "sector": "transport", "coordinates": {"lon": 12.3727632, "lat": 45.4105517}, "vulnerability": 0.5, "capabilities": ["mobility", "access", "evacuation_route"]}, "success": true}
{"sender": "venice_103", "receiver": "broadcast", "tick": 60, "intent": "status_update", "payload": {"status": "critical", "place_name": "Fondazione Prada", "sector": "heritage", "coordinates": {"lon": 12.3320054, "lat": 45.4406316}, "vulnerability": 0.7, "capabilities": ["cultural_value", "tourism", "historical_data"]}, "success": true}
{"sender": "venice_068", "receiver": "broadcast", "tick": 60, "intent": "status_update", "payload": {"status": "critical", "place_name": "Palazzo Bembo", "sector": "heritage", "coordinates": {"lon": 12.3352147, "lat": 45.4369212}, "vulnerability": 0.7, "capabilities": ["cultural_value", "tourism", "historical_data"]}, "success": true}
{"sender": "venice_037", "receiver": "broadcast", "tick": 60, "intent": "status_update", "payload": {"status": "critical", "place_name": "Gallo Contarini", "sector": "transport", "coordinates": {"lon": 12.3668346, "lat": 45.4116286}, "vulnerability": 0.5, "capabilities": ["mobility", "access", "evacuation_route"]}, "success": true}
{"sender": "venice_071", "receiver": "broadcast", "tick": 60, "intent": "status_update", "payload": {"status": "critical", "place_name": "Liberta' Santa Chiara", "sector": "transport", "coordinates": {"lon": 12.3155979, "lat": 45.4410189}, "vulnerability": 0.5, "capabilities": ["mobility", "access", "evacuation_route"]}, "success": true}
{"sender": "venice_067", "receiver": "broadcast", "tick": 60, "intent": "status_update", "payload": {"status": "critical", "place_name": "La Biennale di Venezia - Arsenale", "sector": "heritage", "coordinates": {"lon": 12.3505813, "lat": 45.4334767}, "vulnerability": 0.7, "capabilities": ["cultural_value", "tourism", "historical_data"]}, "success": true}
{"sender": "venice_027", "receiver": "broadcast", "tick": 60, "intent": "status_update", "payload": {"status": "critical", "place_name": "Questura", "sector": "transport", "coordinates": {"lon": 12.3442187, "lat": 45.4368365}, "vulnerability": 0.5, "capabilities": ["mobility", "access", "evacuation_route"]}, "success": false}
{"sender": "venice_009", "receiver": "broadcast", "tick": 60, "intent": "status_update", "payload": {"status": "critical", "place_name": "Daniele Manin", "sector": "heritage", "coordinates": {"lon": 12.3341882, "lat": 45.43532}, "vulnerability": 0.7, "capabilities": ["cultural_value", "tourism", "historical_data"]}, "success": true}
{"sender": "venice_038", "receiver": "broadcast", "tick": 60, "intent": "status_update", "payload": {"status": "critical", "place_name": "Gallo Contarini", "sector": "transport", "coordinates": {"lon": 12.3668346, "lat": 45.4116286}, "vulnerability": 0.5, "capabilities": ["mobility", "access", "evacuation_route"]}, "success": true}
{"sender": "venice_081", "receiver": "broadcast", "tick": 60, "intent": "status_update", "payload": {"status": "critical", "place_name": "Marconi Des Bains", "sector": "transport", "coordinates": {"lon": 12.3755146, "lat": 45.4135028}, "vulnerability": 0.5, "capabilities": ["mobility", "access", "evacuation_route"]}, "success": true}
{"sender": "venice_107", "receiver": "broadcast", "tick": 60, "intent": "status_update", "payload": {"status": "critical", "place_name": "Museo di icone", "sector": "heritage", "coordinates": {"lon": 12.3445939, "lat": 45.4355967}, "vulnerability": 0.7, "capabilities": ["cultural_value", "tourism", "historical_data", "exhibition_space", "public_education"]}, "success": true}
{"sender": "venice_047", "receiver": "broadcast", "tick": 60, "intent": "status_update", "payload": {"status": "critical", "place_name": "Santa Maria Elisabetta", "sector": "transport", "coordinates": {"lon": 12.3691404, "lat": 45.4177591}, "vulnerability": 0.5, "capabilities": ["mobility", "access", "evacuation_route"]}, "success": false}
{"sender": "venice_043", "receiver": "broadcast", "tick": 60, "intent": "status_update", "payload": {"status": "critical", "place_name": "D'Annunzio Pola", "sector": "transport", "coordinates": {"lon": 12.3792664, "lat": 45.4178735}, "vulnerability": 0.5, "capabilities": ["mobility", "access", "evacuation_route"]}, "success": true}
{"sender": "venice_112", "receiver": "broadcast", "tick": 60, "intent": "status_update", "payload": {"status": "critical", "place_name": "Palazzo Diedo", "sector": "heritage", "coordinates": {"lon": 12.3320806, "lat": 45.4435021}, "vulnerability": 0.7, "capabilities": ["cultural_value", "tourism", "historical_data"]}, "success": true}
{"sender": "venice_077", "receiver": "broadcast", "tick": 60, "intent": "status_update", "payload": {"status": "critical", "place_name": "Galleria internazionale di arte moderna", "sector": "heritage", "coordinates": {"lon": 12.3318118, "lat": 45.4411055}, "vulnerability": 0.7, "capabilities": ["cultural_value", "tourism", "historical_data", "electricity", "power_distribution"]}, "success": true}
{"sender": "venice_064", "receiver": "broadcast", "tick": 60, "intent": "status_update", "payload": {"status": "critical", "place_name": "Istituto Veneto di Scienze Lettere ed Arti", "sector": "heritage", "coordinates": {"lon": 12.329633, "lat": 45.4319493}, "vulnerability": 0.7, "capabilities": ["cultural_value", "tourism", "historical_data"]}, "success": true}
{"sender": "venice_052", "receiver": "broadcast", "tick": 60, "intent": "status_update", "payload": {"status": "critical", "place_name": "Museo Diocesano", "sector": "heritage", "coordinates": {"lon": 12.3353098, "lat": 45.4307404}, "vulnerability": 0.7, "capabilities": ["cultural_value", "tourism", "historical_data", "exhibition_space", "public_education"]}, "success": true}
{"sender": "venice_025", "receiver": "broadcast", "tick": 60, "intent": "status_update", "payload": {"status": "critical", "place_name": "Bartolomeo Colleoni", "sector": "heritage", "coordinates": {"lon": 12.3413626, "lat": 45.4392043}, "vulnerability": 0.7, "capabilities": ["cultural_value", "tourism", "historical_data"]}, "success": true}
{"sender": "venice_111", "receiver": "broadcast", "tick": 60, "intent": "status_update", "payload": {"status": "critical", "place_name": "Venezia", "sector": "transport", "coordinates": {"lon": 12.3187138, "lat": 45.4375771}, "vulnerability": 0.5, "capabilities": ["mobility", "access", "evacuation_route"]}, "success": false}
{"sender": "venice_029", "receiver": "broadcast", "tick": 60, "intent": "status_update", "payload": {"status": "critical", "place_name": "Gallerie dell'Accademia", "sector": "heritage", "coordinates": {"lon": 12.3280919, "lat": 45.4313662}, "vulnerability": 0.7, "capabilities": ["cultural_value", "tourism", "historical_data"]}, "success": true}
{"sender": "venice_097", "receiver": "broadcast", "tick": 60, "intent": "status_update", "payload": {"status": "critical", "place_name": "Carabinieri", "sector": "transport", "coordinates": {"lon": 12.3044705, "lat": 45.4402948}, "vulnerability": 0.5, "capabilities": ["mobility", "access", "evacuation_route", "emergency_response", "coordination", "security"]}, "success": true}
{"sender": "venice_046", "receiver": "broadcast", "tick": 60, "intent": "status_update", "payload": {"status": "critical", "place_name": "Marconi Des Bains", "sector": "transport", "coordinates": {"lon": 12.3755146, "lat": 45.4135028}, "vulnerability": 0.5, "capabilities": ["mobility", "access", "evacuation_route"]}, "success": true}
{"sender": "venice_014", "receiver": "broadcast", "tick": 60, "intent": "status_update", "payload": {"status": "critical", "place_name": "Casa dei Tre Oci", "sector": "heritage", "coordinates": {"lon": 12.3385053, "lat": 45.4265946}, "vulnerability": 0.7, "capabilities": ["cultural_value", "tourism", "historical_data"]}, "success": true}
{"sender": "venice_104", "receiver": "broadcast", "tick": 60, "intent": "status_update", "payload": {"status": "critical", "place_name": "Binario 22", "sector": "transport", "coordinates": {"lon": 12.3196113, "lat": 45.440544}, "vulnerability": 0.5, "capabilities": ["mobility", "access", "evacuation_route"]}, "success": true}
{"sender": "venice_028", "receiver": "broadcast", "tick": 60, "intent": "status_update", "payload": {"status": "critical", "place_name": "Monumento a Niccol\u00f2 Tommaseo", "sector": "heritage", "coordinates": {"lon": 12.35, "lat": 45.43}, "vulnerability": 0.7, "capabilities": ["cultural_value", "tourism", "historical_data"]}, "success": true}
{"sender": "venice_049", "receiver": "broadcast", "tick": 60, "intent": "status_update", "payload": {"status": "critical", "place_name": "San Nicolo' Aquileia", "sector": "transport", "coordinates": {"lon": 12.3749089, "lat": 45.4197547}, "vulnerability": 0.5, "capabilities": ["mobility", "access", "evacuation_route"]}, "success": true}
{"sender": "venice_118", "receiver": "broadcast", "tick": 60, "intent": "status_update", "payload": {"status": "critical", "place_name": "Farmacia Comunale San Marco", "sector": "health", "coordinates": {"lon": 12.3378, "lat": 45.434}, "vulnerability": 0.5, "capabilities": ["medication_supply", "emergency_drugs", "medical_equipment", "health_consultation"]}, "success": true}
{"sender": "venice_082", "receiver": "broadcast", "tick": 60, "intent": "status_update", "payload": {"status": "critical", "place_name": "Santa Maria Elisabetta", "sector": "transport", "coordinates": {"lon": 12.3691404, "lat": 45.4177591}, "vulnerability": 0.5, "capabilities": ["mobility", "access", "evacuation_route"]}, "success": true}
{"sender": "venice_090", "receiver": "broadcast", "tick": 60, "intent": "status_update", "payload": {"status": "critical", "place_name": "Peggy Guggenheim Collection", "sector": "heritage", "coordinates": {"lon": 12.3315406, "lat": 45.4308025}, "vulnerability": 0.7, "capabilities": ["cultural_value", "tourism", "historical_data"]}, "success": true}
{"sender": "venice_039", "receiver": "broadcast", "tick": 60, "intent": "status_update", "payload": {"status": "critical", "place_name": "Santa Maria Elisabetta", "sector": "transport", "coordinates": {"lon": 12.3691404, "lat": 45.4177591}, "vulnerability": 0.5, "capabilities": ["mobility", "access", "evacuation_route"]}, "success": true}
{"sender": "venice_079", "receiver": "broadcast", "tick": 60, "intent": "status_update", "payload": {"status": "critical", "place_name": "bus stop to PLUS Camping Jolly", "sector": "transport", "coordinates": {"lon": 12.3123262, "lat": 45.4403205}, "vulnerability": 0.5, "capabilities": ["mobility", "access", "evacuation_route", "passenger_transport", "route_coordination"]}, "success": true}
{"sender": "venice_033", "receiver": "broadcast", "tick": 60, "intent": "status_update", "payload": {"status": "critical", "place_name": "Forte di Sant'Andrea", "sector": "heritage", "coordinates": {"lon": 12.3811253, "lat": 45.4348069}, "vulnerability": 0.7, "capabilities": ["cultural_value", "tourism", "historical_data"]}, "success": true}
{"sender": "venice_096", "receiver": "broadcast", "tick": 60, "intent": "status_update", "payload": {"status": "critical", "place_name": "Museo del Manicomio", "sector": "heritage", "coordinates": {"lon": 12.3560875, "lat": 45.4201403}, "vulnerability": 0.7, "capabilities": ["cultural_value", "tourism", "historical_data", "exhibition_space", "public_education"]}, "success": true}
{"sender": "venice_051", "receiver": "broadcast", "tick": 60, "intent": "status_update", "payload": {"status": "critical", "place_name": "Giardini della Biennale", "sector": "heritage", "coordinates": {"lon": 12.3579333, "lat": 45.4290203}, "vulnerability": 0.7, "capabilities": ["cultural_value", "tourism", "historical_data"]}, "success": true}
{"sender": "venice_088", "receiver": "broadcast", "tick": 60, "intent": "status_update", "payload": {"status": "critical", "place_name": "Gran Viale S.M.E. - Incr. via Dardanelli", "sector": "transport", "coordinates": {"lon": 12.3741982, "lat": 45.4152457}, "vulnerability": 0.5, "capabilities": ["mobility", "access", "evacuation_route"]}, "success": true}
{"sender": "venice_018", "receiver": "broadcast", "tick": 60, "intent": "status_update", "payload": {"status": "critical", "place_name": "Palazzo Loredan dell'Ambasciatore", "sector": "heritage", "coordinates": {"lon": 12.3270976, "lat": 45.4326213}, "vulnerability": 0.7, "capabilities": ["cultural_value", "tourism", "historical_data"]}, "success": true}
{"sender": "venice_015", "receiver": "broadcast", "tick": 60, "intent": "status_update", "payload": {"status": "critical", "place_name": "Giardini Reali di Venezia", "sector": "heritage", "coordinates": {"lon": 12.338214, "lat": 45.4330293}, "vulnerability": 0.7, "capabilities": ["cultural_value", "tourism", "historical_data"]}, "success": false}
{"sender": "venice_023", "receiver": "broadcast", "tick": 60, "intent": "status_update", "payload": {"status": "critical", "place_name": "Pozzo Veneziano dei Bernardo", "sector": "heritage", "coordinates": {"lon": 12.3418174, "lat": 45.4374853}, "vulnerability": 0.7, "capabilities": ["cultural_value", "tourism", "historical_data"]}, "success": true}
{"sender": "venice_026", "receiver": "broadcast", "tick": 60, "intent": "status_update", "payload": {"status": "critical", "place_name": "Monumento alla Partigiana", "sector": "heritage", "coordinates": {"lon": 12.3556621, "lat": 45.4294403}, "vulnerability": 0.7, "capabilities": ["cultural_value", "tourism", "historical_data"]}, "success": true}
{"sender": "venice_057", "receiver": "broadcast", "tick": 60, "intent": "status_update", "payload": {"status": "critical", "place_name": "Carabinieri", "sector": "transport", "coordinates": {"lon": 12.3044705, "lat": 45.4402948}, "vulnerability": 0.5, "capabilities": ["mobility", "access", "evacuation_route", "emergency_response", "coordination", "security"]}, "success": true}
{"sender": "venice_044", "receiver": "broadcast", "tick": 60, "intent": "status_update", "payload": {"status": "critical", "place_name": "San Nicolo' Marco Polo", "sector": "transport", "coordinates": {"lon": 12.3765941, "lat": 45.422329}, "vulnerability": 0.5, "capabilities": ["mobility", "access", "evacuation_route"]}, "success": true}
{"sender": "venice_098", "receiver": "broadcast", "tick": 60, "intent": "status_update", "payload": {"status": "critical", "place_name": "Venezia - Piazzale Roma", "sector": "transport", "coordinates": {"lon": 12.3189955, "lat": 45.4374989}, "vulnerability": 0.5, "capabilities": ["mobility", "access", "evacuation_route"]}, "success": true}
{"sender": "venice_013", "receiver": "broadcast", "tick": 60, "intent": "status_update", "payload": {"status": "critical", "place_name": "Palazzetto Stern", "sector": "heritage", "coordinates": {"lon": 12.3268337, "lat": 45.4330226}, "vulnerability": 0.7, "capabilities": ["cultural_value", "tourism", "historical_data"]}, "success": false}
{"sender": "venice_005", "receiver": "venice_053", "tick": 65, "intent": "request_support", "payload": {"need": "protection", "urgency": "critical", "place_name": "Ex-convento della Celestia", "vulnerability": 0.7, "coordinates": {"lon": 12.3499276, "lat": 45.4375213}}, "success": true}
{"sender": "venice_005", "receiver": "venice_057", "tick": 65, "intent": "request_support", "payload": {"need": "protection", "urgency": "critical", "place_name": "Ex-convento della Celestia", "vulnerability": 0.7, "coordinates": {"lon": 12.3499276, "lat": 45.4375213}}, "success": true}
{"sender": "venice_005", "receiver": "venice_097", "tick": 65, "intent": "request_support", "payload": {"need": "protection", "urgency": "critical", "place_name": "Ex-convento della Celestia", "vulnerability": 0.7, "coordinates": {"lon": 12.3499276, "lat": 45.4375213}}, "success": true}
{"sender": "venice_005", "receiver": "venice_114", "tick": 65, "intent": "request_support", "payload": {"need": "protection", "urgency": "critical", "place_name": "Ex-convento della Celestia", "vulnerability": 0.7, "coordinates": {"lon": 12.3499276, "lat": 45.4375213}}, "success": true}
{"sender": "venice_005", "receiver": "venice_115", "tick": 65, "intent": "request_support", "payload": {"need": "protection", "urgency": "critical", "place_name": "Ex-convento della Celestia", "vulnerability": 0.7, "coordinates": {"lon": 12.3499276, "lat": 45.4375213}}, "success": true}
{"sender": "venice_005", "receiver": "venice_053", "tick": 65, "intent": "request_support", "payload": {"need": "drainage", "urgency": "critical", "place_name": "Ex-convento della Celestia", "vulnerability": 0.7, "coordinates": {"lon": 12.3499276, "lat": 45.4375213}}, "success": true}
{"sender": "venice_005", "receiver": "venice_057", "tick": 65, "intent": "request_support", "payload": {"need": "drainage", "urgency": "critical", "place_name": "Ex-convento della Celestia", "vulnerability": 0.7, "coordinates": {"lon": 12.3499276, "lat": 45.4375213}}, "success": true}
{"sender": "venice_005", "receiver": "venice_097", "tick": 65, "intent": "request_support", "payload": {"need": "drainage", "urgency": "critical", "place_name": "Ex-convento della Celestia", "vulnerability": 0.7, "coordinates": {"lon": 12.3499276, "lat": 45.4375213}}, "success": true}
{"sender": "venice_005", "receiver": "venice_114", "tick": 65, "intent": "request_support", "payload": {"need": "drainage", "urgency": "critical", "place_name": "Ex-convento della Celestia", "vulnerability": 0.7, "coordinates": {"lon": 12.3499276, "lat": 45.4375213}}, "success": false}
{"sender": "venice_005", "receiver": "venice_115", "tick": 65, "intent": "request_support", "payload": {"need": "drainage", "urgency": "critical", "place_name": "Ex-convento della Celestia", "vulnerability": 0.7, "coordinates": {"lon": 12.3499276, "lat": 45.4375213}}, "success": true}
{"sender": "venice_005", "receiver": "venice_053", "tick": 65, "intent": "request_support", "payload": {"need": "structural_support", "urgency": "critical", "place_name": "Ex-convento della Celestia", "vulnerability": 0.7, "coordinates": {"lon": 12.3499276, "lat": 45.4375213}}, "success": true}
{"sender": "venice_005", "receiver": "venice_057", "tick": 65, "intent": "request_support", "payload": {"need": "structural_support", "urgency": "critical", "place_name": "Ex-convento della Celestia", "vulnerability": 0.7, "coordinates": {"lon": 12.3499276, "lat": 45.4375213}}, "success": true}
{"sender": "venice_005", "receiver": "venice_097", "tick": 65, "intent": "request_support", "payload": {"need": "structural_support", "urgency": "critical", "place_name": "Ex-convento della Celestia", "vulnerability": 0.7, "coordinates": {"lon": 12.3499276, "lat": 45.4375213}}, "success": true}
{"sender": "venice_005", "receiver": "venice_114", "tick": 65, "intent": "request_support", "payload": {"need": "structural_support", "urgency": "critical", "place_name": "Ex-convento della Celestia", "vulnerability": 0.7, "coordinates": {"lon": 12.3499276, "lat": 45.4375213}}, "success": true}
{"sender": "venice_005", "receiver": "venice_115", "tick": 65, "intent": "request_support", "payload": {"need": "structural_support", "urgency": "critical", "place_name": "Ex-convento della Celestia", "vulnerability": 0.7, "coordinates": {"lon": 12.3499276, "lat": 45.4375213}}, "success": true}
{"sender": "venice_073", "receiver": "venice_053", "tick": 65, "intent": "request_support", "payload": {"need": "protection", "urgency": "critical", "place_name": "Leonardo da Vinci", "vulnerability": 0.7, "coordinates": {"lon": 12.3252338, "lat": 45.433058}}, "success": true}
{"sender": "venice_073", "receiver": "venice_057", "tick": 65, "intent": "request_support", "payload": {"need": "protection", "urgency": "critical", "place_name": "Leonardo da Vinci", "vulnerability": 0.7, "coordinates": {"lon": 12.3252338, "lat": 45.433058}}, "success": false}
{"sender": "venice_073", "receiver": "venice_097", "tick": 65, "intent": "request_support", "payload": {"need": "protection", "urgency": "critical", "place_name": "Leonardo da Vinci", "vulnerability": 0.7, "coordinates": {"lon": 12.3252338, "lat": 45.433058}}, "success": true}
{"sender": "venice_073", "receiver": "venice_114", "tick": 65, "intent": "request_support", "payload": {"need": "protection", "urgency": "critical", "place_name": "Leonardo da Vinci", "vulnerability": 0.7, "coordinates": {"lon": 12.3252338, "lat": 45.433058}}, "success": true}
{"sender": "venice_073", "receiver": "venice_115", "tick": 65, "intent": "request_support", "payload": {"need": "protection", "urgency": "critical", "place_name": "Leonardo da Vinci", "vulnerability": 0.7, "coordinates": {"lon": 12.3252338, "lat": 45.433058}}, "success": false}
{"sender": "venice_073", "receiver": "venice_053", "tick": 65, "intent": "request_support", "payload": {"need": "drainage", "urgency": "critical", "place_name": "Leonardo da Vinci", "vulnerability": 0.7, "coordinates": {"lon": 12.3252338, "lat": 45.433058}}, "success": true}
{"sender": "venice_073", "receiver": "venice_057", "tick": 65, "intent": "request_support", "payload": {"need": "drainage", "urgency": "critical", "place_name": "Leonardo da Vinci", "vulnerability": 0.7, "coordinates": {"lon": 12.3252338, "lat": 45.433058}}, "success": true}
{"sender": "venice_073", "receiver": "venice_097", "tick": 65, "intent": "request_support", "payload": {"need": "drainage", "urgency": "critical", "place_name": "Leonardo da Vinci", "vulnerability": 0.7, "coordinates": {"lon": 12.3252338, "lat": 45.433058}}, "success": true}
{"sender": "venice_073", "receiver": "venice_114", "tick": 65, "intent": "request_support", "payload": {"need": "drainage", "urgency": "critical", "place_name": "Leonardo da Vinci", "vulnerability": 0.7, "coordinates": {"lon": 12.3252338, "lat": 45.433058}}, "success": true}
{"sender": "venice_073", "receiver": "venice_115", "tick": 65, "intent": "request_support", "payload": {"need": "drainage", "urgency": "critical", "place_name": "Leonardo da Vinci", "vulnerability": 0.7, "coordinates": {"lon": 12.3252338, "lat": 45.433058}}, "success": false}
{"sender": "venice_073", "receiver": "venice_053", "tick": 65, "intent": "request_support", "payload": {"need": "structural_support", "urgency": "critical", "place_name": "Leonardo da Vinci", "vulnerability": 0.7, "coordinates": {"lon": 12.3252338, "lat": 45.433058}}, "success": true}
{"sender": "venice_073", "receiver": "venice_057", "tick": 65, "intent": "request_support", "payload": {"need": "structural_support", "urgency": "critical", "place_name": "Leonardo da Vinci", "vulnerability": 0.7, "coordinates": {"lon": 12.3252338, "lat": 45.433058}}, "success": true}
{"sender": "venice_073", "receiver": "venice_097", "tick": 65, "intent": "request_support", "payload": {"need": "structural_support", "urgency": "critical", "place_name": "Leonardo da Vinci", "vulnerability": 0.7, "coordinates": {"lon": 12.3252338, "lat": 45.433058}}, "success": true}
{"sender": "venice_073", "receiver": "venice_114", "tick": 65, "intent": "request_support", "payload": {"need": "structural_support", "urgency": "critical", "place_name": "Leonardo da Vinci", "vulnerability": 0.7, "coordinates": {"lon": 12.3252338, "lat": 45.433058}}, "success": true}
{"sender": "venice_073", "receiver": "venice_115", "tick": 65, "intent": "request_support", "payload": {"need": "structural_support", "urgency": "critical", "place_name": "Leonardo da Vinci", "vulnerability": 0.7, "coordinates": {"lon": 12.3252338, "lat": 45.433058}}, "success": true}
{"sender": "venice_021", "receiver": "venice_053", "tick": 65, "intent": "request_support", "payload": {"need": "protection", "urgency": "critical", "place_name": "Colonna di San Teodoro", "vulnerability": 0.7, "coordinates": {"lon": 12.3396561, "lat": 45.4332846}}, "success": true}
{"sender": "venice_021", "receiver": "venice_057", "tick": 65, "intent": "request_support", "payload": {"need": "protection", "urgency": "critical", "place_name": "Colonna di San Teodoro", "vulnerability": 0.7, "coordinates": {"lon": 12.3396561, "lat": 45.4332846}}, "success": true}
{"sender": "venice_021", "receiver": "venice_097", "tick": 65, "intent": "request_support", "payload": {"need": "protection", "urgency": "critical", "place_name": "Colonna di San Teodoro", "vulnerability": 0.7, "coordinates": {"lon": 12.3396561, "lat": 45.4332846}}, "success": false}
{"sender": "venice_021", "receiver": "venice_114", "tick": 65, "intent": "request_support", "payload": {"need": "protection", "urgency": "critical", "place_name": "Colonna di San Teodoro", "vulnerability": 0.7, "coordinates": {"lon": 12.3396561, "lat": 45.4332846}}, "success": true}
{"sender": "venice_021", "receiver": "venice_115", "tick": 65, "intent": "request_support", "payload": {"need": "protection", "urgency": "critical", "place_name": "Colonna di San Teodoro", "vulnerability": 0.7, "coordinates": {"lon": 12.3396561, "lat": 45.4332846}}, "success": true}
{"sender": "venice_021", "receiver": "venice_053", "tick": 65, "intent": "request_support", "payload": {"need": "drainage", "urgency": "critical", "place_name": "Colonna di San Teodoro", "vulnerability": 0.7, "coordinates": {"lon": 12.3396561, "lat": 45.4332846}}, "success": true}
{"sender": "venice_021", "receiver": "venice_057", "tick": 65, "intent": "request_support", "payload": {"need": "drainage", "urgency": "critical", "place_name": "Colonna di San Teodoro", "vulnerability": 0.7, "coordinates": {"lon": 12.3396561, "lat": 45.4332846}}, "success": true}
{"sender": "venice_021", "receiver": "venice_097", "tick": 65, "intent": "request_support", "payload": {"need": "drainage", "urgency": "critical", "place_name": "Colonna di San Teodoro", "vulnerability": 0.7, "coordinates": {"lon": 12.3396561, "lat": 45.4332846}}, "success": true}
{"sender": "venice_021", "receiver": "venice_114", "tick": 65, "intent": "request_support", "payload": {"need": "drainage", "urgency": "critical", "place_name": "Colonna di San Teodoro", "vulnerability": 0.7, "coordinates": {"lon": 12.3396561, "lat": 45.4332846}}, "success": true}
{"sender": "venice_021", "receiver": "venice_115", "tick": 65, "intent": "request_support", "payload": {"need": "drainage", "urgency": "critical", "place_name": "Colonna di San Teodoro", "vulnerability": 0.7, "coordinates": {"lon": 12.3396561, "lat": 45.4332846}}, "success": true}
{"sender": "venice_021", "receiver": "venice_053", "tick": 65, "intent": "request_support", "payload": {"need": "structural_support", "urgency": "critical", "place_name": "Colonna di San Teodoro", "vulnerability": 0.7, "coordinates": {"lon": 12.3396561, "lat": 45.4332846}}, "success": true}
{"sender": "venice_021", "receiver": "venice_057", "tick": 65, "intent": "request_support", "payload": {"need": "structural_support", "urgency": "critical", "place_name": "Colonna di San Teodoro", "vulnerability": 0.7, "coordinates": {"lon": 12.3396561, "lat": 45.4332846}}, "success": true}
{"sender": "venice_021", "receiver": "venice_097", "tick": 65, "intent": "request_support", "payload": {"need": "structural_support", "urgency": "critical", "place_name": "Colonna di San Teodoro", "vulnerability": 0.7, "coordinates": {"lon": 12.3396561, "lat": 45.4332846}}, "success": true}
{"sender": "venice_021", "receiver": "venice_114", "tick": 65, "intent": "request_support", "payload": {"need": "structural_support", "urgency": "critical", "place_name": "Colonna di San Teodoro", "vulnerability": 0.7, "coordinates": {"lon": 12.3396561, "lat": 45.4332846}}, "success": true}
{"sender": "venice_021", "receiver": "venice_115", "tick": 65, "intent": "request_support", "payload": {"need": "structural_support", "urgency": "critical", "place_name": "Colonna di San Teodoro", "vulnerability": 0.7, "coordinates": {"lon": 12.3396561, "lat": 45.4332846}}, "success": true}
{"sender": "venice_039", "receiver": "venice_077", "tick": 65, "intent": "request_support", "payload": {"need": "power", "urgency": "critical", "place_name": "Santa Maria Elisabetta", "vulnerability": 0.5, "coordinates": {"lon": 12.3691404, "lat": 45.4177591}}, "success": true}
{"sender": "venice_039", "receiver": "venice_053", "tick": 65, "intent": "request_support", "payload": {"need": "communication", "urgency": "critical", "place_name": "Santa Maria Elisabetta", "vulnerability": 0.5, "coordinates": {"lon": 12.3691404, "lat": 45.4177591}}, "success": true}
{"sender": "venice_039", "receiver": "venice_057", "tick": 65, "intent": "request_support", "payload": {"need": "communication", "urgency": "critical", "place_name": "Santa Maria Elisabetta", "vulnerability": 0.5, "coordinates": {"lon": 12.3691404, "lat": 45.4177591}}, "success": false}
{"sender": "venice_039", "receiver": "venice_097", "tick": 65, "intent": "request_support", "payload": {"need": "communication", "urgency": "critical", "place_name": "Santa Maria Elisabetta", "vulnerability": 0.5, "coordinates": {"lon": 12.3691404, "lat": 45.4177591}}, "success": true}
{"sender": "venice_039", "receiver": "venice_114", "tick": 65, "intent": "request_support", "payload": {"need": "communication", "urgency": "critical", "place_name": "Santa Maria Elisabetta", "vulnerability": 0.5, "coordinates": {"lon": 12.3691404, "lat": 45.4177591}}, "success": false}
{"sender": "venice_039", "receiver": "venice_115", "tick": 65, "intent": "request_support", "payload": {"need": "communication", "urgency": "critical", "place_name": "Santa Maria Elisabetta", "vulnerability": 0.5, "coordinates": {"lon": 12.3691404, "lat": 45.4177591}}, "success": true}
{"sender": "venice_009", "receiver": "venice_053", "tick": 65, "intent": "request_support", "payload": {"need": "protection", "urgency": "critical", "place_name": "Daniele Manin", "vulnerability": 0.7, "coordinates": {"lon": 12.3341882, "lat": 45.43532}}, "success": true}
{"sender": "venice_009", "receiver": "venice_057", "tick": 65, "intent": "request_support", "payload": {"need": "protection", "urgency": "critical", "place_name": "Daniele Manin", "vulnerability": 0.7, "coordinates": {"lon": 12.3341882, "lat": 45.43532}}, "success": false}
{"sender": "venice_009", "receiver": "venice_097", "tick": 65, "intent": "request_support", "payload": {"need": "protection", "urgency": "critical", "place_name": "Daniele Manin", "vulnerability": 0.7, "coordinates": {"lon": 12.3341882, "lat": 45.43532}}, "success": true}
{"sender": "venice_009", "receiver": "venice_114", "tick": 65, "intent": "request_support", "payload": {"need": "protection", "urgency": "critical", "place_name": "Daniele Manin", "vulnerability": 0.7, "coordinates": {"lon": 12.3341882, "lat": 45.43532}}, "success": true}
{"sender": "venice_009", "receiver": "venice_115", "tick": 65, "intent": "request_support", "payload": {"need": "protection", "urgency": "critical", "place_name": "Daniele Manin", "vulnerability": 0.7, "coordinates": {"lon": 12.3341882, "lat": 45.43532}}, "success": true}
{"sender": "venice_009", "receiver": "venice_053", "tick": 65, "intent": "request_support", "payload": {"need": "drainage", "urgency": "critical", "place_name": "Daniele Manin", "vulnerability": 0.7, "coordinates": {"lon": 12.3341882, "lat": 45.43532}}, "success": true}
{"sender": "venice_009", "receiver": "venice_057", "tick": 65, "intent": "request_support", "payload": {"need": "drainage", "urgency": "critical", "place_name": "Daniele Manin", "vulnerability": 0.7, "coordinates": {"lon": 12.3341882, "lat": 45.43532}}, "success": true}
{"sender": "venice_009", "receiver": "venice_097", "tick": 65, "intent": "request_support", "payload": {"need": "drainage", "urgency": "critical", "place_name": "Daniele Manin", "vulnerability": 0.7, "coordinates": {"lon": 12.3341882, "lat": 45.43532}}, "success": true}
{"sender": "venice_009", "receiver": "venice_114", "tick": 65, "intent": "request_support", "payload": {"need": "drainage", "urgency": "critical", "place_name": "Daniele Manin", "vulnerability": 0.7, "coordinates": {"lon": 12.3341882, "lat": 45.43532}}, "success": true}
{"sender": "venice_009", "receiver": "venice_115", "tick": 65, "intent": "request_support", "payload": {"need": "drainage", "urgency": "critical", "place_name": "Daniele Manin", "vulnerability": 0.7, "coordinates": {"lon": 12.3341882, "lat": 45.43532}}, "success": true}
{"sender": "venice_009", "receiver": "venice_053", "tick": 65, "intent": "request_support", "payload": {"need": "structural_support", "urgency": "critical", "place_name": "Daniele Manin", "vulnerability": 0.7, "coordinates": {"lon": 12.3341882, "lat": 45.43532}}, "success": true}
{"sender": "venice_009", "receiver": "venice_057", "tick": 65, "intent": "request_support", "payload": {"need": "structural_support", "urgency": "critical", "place_name": "Daniele Manin", "vulnerability": 0.7, "coordinates": {"lon": 12.3341882, "lat": 45.43532}}, "success": true}
{"sender": "venice_009", "receiver": "venice_097", "tick": 65, "intent": "request_support", "payload": {"need": "structural_support", "urgency": "critical", "place_name": "Daniele Manin", "vulnerability": 0.7, "coordinates": {"lon": 12.3341882, "lat": 45.43532}}, "success": true}
{"sender": "venice_009", "receiver": "venice_114", "tick": 65, "intent": "request_support", "payload": {"need": "structural_support", "urgency": "critical", "place_name": "Daniele Manin", "vulnerability": 0.7, "coordinates": {"lon": 12.3341882, "lat": 45.43532}}, "success": true}
{"sender": "venice_009", "receiver": "venice_115", "tick": 65, "intent": "request_support", "payload": {"need": "structural_support", "urgency": "critical", "place_name": "Daniele Manin", "vulnerability": 0.7, "coordinates": {"lon": 12.3341882, "lat": 45.43532}}, "success": true}
{"sender": "venice_100", "receiver": "venice_077", "tick": 65, "intent": "request_support", "payload": {"need": "power", "urgency": "critical", "place_name": "Polizia Locale Venezia", "vulnerability": 0.5, "coordinates": {"lon": 12.3096447, "lat": 45.4428748}}, "success": true}
{"sender": "venice_100", "receiver": "venice_053", "tick": 65, "intent": "request_support", "payload": {"need": "communication", "urgency": "critical", "place_name": "Polizia Locale Venezia", "vulnerability": 0.5, "coordinates": {"lon": 12.3096447, "lat": 45.4428748}}, "success": true}
{"sender": "venice_100", "receiver": "venice_057", "tick": 65, "intent": "request_support", "payload": {"need": "communication", "urgency": "critical", "place_name": "Polizia Locale Venezia", "vulnerability": 0.5, "coordinates": {"lon": 12.3096447, "lat": 45.4428748}}, "success": true}
{"sender": "venice_100", "receiver": "venice_097", "tick": 65, "intent": "request_support", "payload": {"need": "communication", "urgency": "critical", "place_name": "Polizia Locale Venezia", "vulnerability": 0.5, "coordinates": {"lon": 12.3096447, "lat": 45.4428748}}, "success": true}
{"sender": "venice_100", "receiver": "venice_114", "tick": 65, "intent": "request_support", "payload": {"need": "communication", "urgency": "critical", "place_name": "Polizia Locale Venezia", "vulnerability": 0.5, "coordinates": {"lon": 12.3096447, "lat": 45.4428748}}, "success": true}
{"sender": "venice_100", "receiver": "venice_115", "tick": 65, "intent": "request_support", "payload": {"need": "communication", "urgency": "critical", "place_name": "Polizia Locale Venezia", "vulnerability": 0.5, "coordinates": {"lon": 12.3096447, "lat": 45.4428748}}, "success": true}
{"sender": "venice_045", "receiver": "venice_077", "tick": 65, "intent": "request_support", "payload": {"need": "power", "urgency": "critical", "place_name": "San Nicolo' Cipro", "vulnerability": 0.5, "coordinates": {"lon": 12.3774986, "lat": 45.4241895}}, "success": true}
{"sender": "venice_045", "receiver": "venice_053", "tick": 65, "intent": "request_support", "payload": {"need": "communication", "urgency": "critical", "place_name": "San Nicolo' Cipro", "vulnerability": 0.5, "coordinates": {"lon": 12.3774986, "lat": 45.4241895}}, "success": true}
{"sender": "venice_045", "receiver": "venice_057", "tick": 65, "intent": "request_support", "payload": {"need": "communication", "urgency": "critical", "place_name": "San Nicolo' Cipro", "vulnerability": 0.5, "coordinates": {"lon": 12.3774986, "lat": 45.4241895}}, "success": false}
{"sender": "venice_045", "receiver": "venice_097", "tick": 65, "intent": "request_support", "payload": {"need": "communication", "urgency": "critical", "place_name": "San Nicolo' Cipro", "vulnerability": 0.5, "coordinates": {"lon": 12.3774986, "lat": 45.4241895}}, "success": true}
{"sender": "venice_045", "receiver": "venice_114", "tick": 65, "intent": "request_support", "payload": {"need": "communication", "urgency": "critical", "place_name": "San Nicolo' Cipro", "vulnerability": 0.5, "coordinates": {"lon": 12.3774986, "lat": 45.4241895}}, "success": true}
{"sender": "venice_045", "receiver": "venice_115", "tick": 65, "intent": "request_support", "payload": {"need": "communication", "urgency": "critical", "place_name": "San Nicolo' Cipro", "vulnerability": 0.5, "coordinates": {"lon": 12.3774986, "lat": 45.4241895}}, "success": true}
{"sender": "venice_038", "receiver": "venice_077", "tick": 65, "intent": "request_support", "payload": {"need": "power", "urgency": "critical", "place_name": "Gallo Contarini", "vulnerability": 0.5, "coordinates": {"lon": 12.3668346, "lat": 45.4116286}}, "success": true}
{"sender": "venice_038", "receiver": "venice_053", "tick": 65, "intent": "request_support", "payload": {"need": "communication", "urgency": "critical", "place_name": "Gallo Contarini", "vulnerability": 0.5, "coordinates": {"lon": 12.3668346, "lat": 45.4116286}}, "success": false}
{"sender": "venice_038", "receiver": "venice_057", "tick": 65, "intent": "request_support", "payload": {"need": "communication", "urgency": "critical", "place_name": "Gallo Contarini", "vulnerability": 0.5, "coordinates": {"lon": 12.3668346, "lat": 45.4116286}}, "success": true}
{"sender": "venice_038", "receiver": "venice_097", "tick": 65, "intent": "request_support", "payload": {"need": "communication", "urgency": "critical", "place_name": "Gallo Contarini", "vulnerability": 0.5, "coordinates": {"lon": 12.3668346, "lat": 45.4116286}}, "success": true}
{"sender": "venice_038", "receiver": "venice_114", "tick": 65, "intent": "request_support", "payload": {"need": "communication", "urgency": "critical", "place_name": "Gallo Contarini", "vulnerability": 0.5, "coordinates": {"lon": 12.3668346, "lat": 45.4116286}}, "success": true}
{"sender": "venice_038", "receiver": "venice_115", "tick": 65, "intent": "request_support", "payload": {"need": "communication", "urgency": "critical", "place_name": "Gallo Contarini", "vulnerability": 0.5, "coordinates": {"lon": 12.3668346, "lat": 45.4116286}}, "success": true}
{"sender": "venice_065", "receiver": "venice_077", "tick": 65, "intent": "request_support", "payload": {"need": "power", "urgency": "critical", "place_name": "Venezia Tronchetto", "vulnerability": 0.5, "coordinates": {"lon": 12.3078759, "lat": 45.442074}}, "success": true}
{"sender": "venice_065", "receiver": "venice_053", "tick": 65, "intent": "request_support", "payload": {"need": "communication", "urgency": "critical", "place_name": "Venezia Tronchetto", "vulnerability": 0.5, "coordinates": {"lon": 12.3078759, "lat": 45.442074}}, "success": true}
{"sender": "venice_065", "receiver": "venice_057", "tick": 65, "intent": "request_support", "payload": {"need": "communication", "urgency": "critical", "place_name": "Venezia Tronchetto", "vulnerability": 0.5, "coordinates": {"lon": 12.3078759, "lat": 45.442074}}, "success": true}
{"sender": "venice_065", "receiver": "venice_097", "tick": 65, "intent": "request_support", "payload": {"need": "communication", "urgency": "critical", "place_name": "Venezia Tronchetto", "vulnerability": 0.5, "coordinates": {"lon": 12.3078759, "lat": 45.442074}}, "success": false}
{"sender": "venice_065", "receiver": "venice_114", "tick": 65, "intent": "request_support", "payload": {"need": "communication", "urgency": "critical", "place_name": "Venezia Tronchetto", "vulnerability": 0.5, "coordinates": {"lon": 12.3078759, "lat": 45.442074}}, "success": true}
{"sender": "venice_065", "receiver": "venice_115", "tick": 65, "intent": "request_support", "payload": {"need": "communication", "urgency": "critical", "place_name": "Venezia Tronchetto", "vulnerability": 0.5, "coordinates": {"lon": 12.3078759, "lat": 45.442074}}, "success": true}
{"sender": "venice_022", "receiver": "venice_053", "tick": 65, "intent": "request_support", "payload": {"need": "protection", "urgency": "critical", "place_name": "Palazzo Dandolo", "vulnerability": 0.7, "coordinates": {"lon": 12.3420398, "lat": 45.4341427}}, "success": true}
{"sender": "venice_022", "receiver": "venice_057", "tick": 65, "intent": "request_support", "payload": {"need": "protection", "urgency": "critical", "place_name": "Palazzo Dandolo", "vulnerability": 0.7, "coordinates": {"lon": 12.3420398, "lat": 45.4341427}}, "success": true}
{"sender": "venice_022", "receiver": "venice_097", "tick": 65, "intent": "request_support", "payload": {"need": "protection", "urgency": "critical", "place_name": "Palazzo Dandolo", "vulnerability": 0.7, "coordinates": {"lon": 12.3420398, "lat": 45.4341427}}, "success": true}
{"sender": "venice_022", "receiver": "venice_114", "tick": 65, "intent": "request_support", "payload": {"need": "protection", "urgency": "critical", "place_name": "Palazzo Dandolo", "vulnerability": 0.7, "coordinates": {"lon": 12.3420398, "lat": 45.4341427}}, "success": true}
{"sender": "venice_022", "receiver": "venice_115", "tick": 65, "intent": "request_support", "payload": {"need": "protection", "urgency": "critical", "place_name": "Palazzo Dandolo", "vulnerability": 0.7, "coordinates": {"lon": 12.3420398, "lat": 45.4341427}}, "success": true}
{"sender": "venice_022", "receiver": "venice_053", "tick": 65, "intent": "request_support", "payload": {"need": "drainage", "urgency": "critical", "place_name": "Palazzo Dandolo", "vulnerability": 0.7, "coordinates": {"lon": 12.3420398, "lat": 45.4341427}}, "success": true}
{"sender": "venice_022", "receiver": "venice_057", "tick": 65, "intent": "request_support", "payload": {"need": "drainage", "urgency": "critical", "place_name": "Palazzo Dandolo", "vulnerability": 0.7, "coordinates": {"lon": 12.3420398, "lat": 45.4341427}}, "success": true}
{"sender": "venice_022", "receiver": "venice_097", "tick": 65, "intent": "request_support", "payload": {"need": "drainage", "urgency": "critical", "place_name": "Palazzo Dandolo", "vulnerability": 0.7, "coordinates": {"lon": 12.3420398, "lat": 45.4341427}}, "success": true}
{"sender": "venice_022", "receiver": "venice_114", "tick": 65, "intent": "request_support", "payload": {"need": "drainage", "urgency": "critical", "place_name": "Palazzo Dandolo", "vulnerability": 0.7, "coordinates": {"lon": 12.3420398, "lat": 45.4341427}}, "success": true}
{"sender": "venice_022", "receiver": "venice_115", "tick": 65, "intent": "request_support", "payload": {"need": "drainage", "urgency": "critical", "place_name": "Palazzo Dandolo", "vulnerability": 0.7, "coordinates": {"lon": 12.3420398, "lat": 45.4341427}}, "success": true}
{"sender": "venice_022", "receiver": "venice_053", "tick": 65, "intent": "request_support", "payload": {"need": "structural_support", "urgency": "critical", "place_name": "Palazzo Dandolo", "vulnerability": 0.7, "coordinates": {"lon": 12.3420398, "lat": 45.4341427}}, "success": true}
{"sender": "venice_022", "receiver": "venice_057", "tick": 65, "intent": "request_support", "payload": {"need": "structural_support", "urgency": "critical", "place_name": "Palazzo Dandolo", "vulnerability": 0.7, "coordinates": {"lon": 12.3420398, "lat": 45.4341427}}, "success": true}
{"sender": "venice_022", "receiver": "venice_097", "tick": 65, "intent": "request_support", "payload": {"need": "structural_support", "urgency": "critical", "place_name": "Palazzo Dandolo", "vulnerability": 0.7, "coordinates": {"lon": 12.3420398, "lat": 45.4341427}}, "success": true}
{"sender": "venice_022", "receiver": "venice_114", "tick": 65, "intent": "request_support", "payload": {"need": "structural_support", "urgency": "critical", "place_name": "Palazzo Dandolo", "vulnerability": 0.7, "coordinates": {"lon": 12.3420398, "lat": 45.4341427}}, "success": true}
{"sender": "venice_022", "receiver": "venice_115", "tick": 65, "intent": "request_support", "payload": {"need": "structural_support", "urgency": "critical", "place_name": "Palazzo Dandolo", "vulnerability": 0.7, "coordinates": {"lon": 12.3420398, "lat": 45.4341427}}, "success": true}
{"sender": "venice_077", "receiver": "venice_053", "tick": 65, "intent": "request_support", "payload": {"need": "protection", "urgency": "critical", "place_name": "Galleria internazionale di arte moderna", "vulnerability": 0.7, "coordinates": {"lon": 12.3318118, "lat": 45.4411055}}, "success": true}
{"sender": "venice_077", "receiver": "venice_057", "tick": 65, "intent": "request_support", "payload": {"need": "protection", "urgency": "critical", "place_name": "Galleria internazionale di arte moderna", "vulnerability": 0.7, "coordinates": {"lon": 12.3318118, "lat": 45.4411055}}, "success": true}
{"sender": "venice_077", "receiver": "venice_097", "tick": 65, "intent": "request_support", "payload": {"need": "protection", "urgency": "critical", "place_name": "Galleria internazionale di arte moderna", "vulnerability": 0.7, "coordinates": {"lon": 12.3318118, "lat": 45.4411055}}, "success": false}
{"sender": "venice_077", "receiver": "venice_114", "tick": 65, "intent": "request_support", "payload": {"need": "protection", "urgency": "critical", "place_name": "Galleria internazionale di arte moderna", "vulnerability": 0.7, "coordinates": {"lon": 12.3318118, "lat": 45.4411055}}, "success": true}
{"sender": "venice_077", "receiver": "venice_115", "tick": 65, "intent": "request_support", "payload": {"need": "protection", "urgency": "critical", "place_name": "Galleria internazionale di arte moderna", "vulnerability": 0.7, "coordinates": {"lon": 12.3318118, "lat": 45.4411055}}, "success": true}
{"sender": "venice_077", "receiver": "venice_053", "tick": 65, "intent": "request_support", "payload": {"need": "drainage", "urgency": "critical", "place_name": "Galleria internazionale di arte moderna", "vulnerability": 0.7, "coordinates": {"lon": 12.3318118, "lat": 45.4411055}}, "success": false}
{"sender": "venice_077", "receiver": "venice_057", "tick": 65, "intent": "request_support", "payload": {"need": "drainage", "urgency": "critical", "place_name": "Galleria internazionale di arte moderna", "vulnerability": 0.7, "coordinates": {"lon": 12.3318118, "lat": 45.4411055}}, "success": true}
{"sender": "venice_077", "receiver": "venice_097", "tick": 65, "intent": "request_support", "payload": {"need": "drainage", "urgency": "critical", "place_name": "Galleria internazionale di arte moderna", "vulnerability": 0.7, "coordinates": {"lon": 12.3318118, "lat": 45.4411055}}, "success": true}
{"sender": "venice_077", "receiver": "venice_114", "tick": 65, "intent": "request_support", "payload": {"need": "drainage", "urgency": "critical", "place_name": "Galleria internazionale di arte moderna", "vulnerability": 0.7, "coordinates": {"lon": 12.3318118, "lat": 45.4411055}}, "success": true}
{"sender": "venice_077", "receiver": "venice_115", "tick": 65, "intent": "request_support", "payload": {"need": "drainage", "urgency": "critical", "place_name": "Galleria internazionale di arte moderna", "vulnerability": 0.7, "coordinates": {"lon": 12.3318118, "lat": 45.4411055}}, "success": true}
{"sender": "venice_077", "receiver": "venice_053", "tick": 65, "intent": "request_support", "payload": {"need": "structural_support", "urgency": "critical", "place_name": "Galleria internazionale di arte moderna", "vulnerability": 0.7, "coordinates": {"lon": 12.3318118, "lat": 45.4411055}}, "success": true}
{"sender": "venice_077", "receiver": "venice_057", "tick": 65, "intent": "request_support", "payload": {"need": "structural_support", "urgency": "critical", "place_name": "Galleria internazionale di arte moderna", "vulnerability": 0.7, "coordinates": {"lon": 12.3318118, "lat": 45.4411055}}, "success": true}
{"sender": "venice_077", "receiver": "venice_097", "tick": 65, "intent": "request_support", "payload": {"need": "structural_support", "urgency": "critical", "place_name": "Galleria internazionale di arte moderna", "vulnerability": 0.7, "coordinates": {"lon": 12.3318118, "lat": 45.4411055}}, "success": false}
{"sender": "venice_077", "receiver": "venice_114", "tick": 65, "intent": "request_support", "payload": {"need": "structural_support", "urgency": "critical", "place_name": "Galleria internazionale di arte moderna", "vulnerability": 0.7, "coordinates": {"lon": 12.3318118, "lat": 45.4411055}}, "success": true}
{"sender": "venice_077", "receiver": "venice_115", "tick": 65, "intent": "request_support", "payload": {"need": "structural_support", "urgency": "critical", "place_name": "Galleria internazionale di arte moderna", "vulnerability": 0.7, "coordinates": {"lon": 12.3318118, "lat": 45.4411055}}, "success": true}
{"sender": "venice_077", "receiver": "venice_039", "tick": 65, "intent": "reject", "payload": {"need": "power", "reason": "unavailable_due_to_critical"}, "success": true}
{"sender": "venice_077", "receiver": "venice_100", "tick": 65, "intent": "reject", "payload": {"need": "power", "reason": "unavailable_due_to_critical"}, "success": true}
{"sender": "venice_077", "receiver": "venice_045", "tick": 65, "intent": "commit", "payload": {"need": "power", "estimated_response_time": 2, "capabilities": ["cultural_value", "tourism", "historical_data", "electricity", "power_distribution"]}, "success": true}
{"sender": "venice_077", "receiver": "venice_038", "tick": 65, "intent": "commit", "payload": {"need": "power", "estimated_response_time": 3, "capabilities": ["cultural_value", "tourism", "historical_data", "electricity", "power_distribution"]}, "success": false}
{"sender": "venice_077", "receiver": "venice_065", "tick": 65, "intent": "reject", "payload": {"need": "power", "reason": "unavailable_due_to_critical"}, "success": true}
{"sender": "venice_068", "receiver": "venice_053", "tick": 65, "intent": "request_support", "payload": {"need": "protection", "urgency": "critical", "place_name": "Palazzo Bembo", "vulnerability": 0.7, "coordinates": {"lon": 12.3352147, "lat": 45.4369212}}, "success": true}
{"sender": "venice_068", "receiver": "venice_057", "tick": 65, "intent": "request_support", "payload": {"need": "protection", "urgency": "critical", "place_name": "Palazzo Bembo", "vulnerability": 0.7, "coordinates": {"lon": 12.3352147, "lat": 45.4369212}}, "success": true}
{"sender": "venice_068", "receiver": "venice_097", "tick": 65, "intent": "request_support", "payload": {"need": "protection", "urgency": "critical", "place_name": "Palazzo Bembo", "vulnerability": 0.7, "coordinates": {"lon": 12.3352147, "lat": 45.4369212}}, "success": true}
{"sender": "venice_068", "receiver": "venice_114", "tick": 65, "intent": "request_support", "payload": {"need": "protection", "urgency": "critical", "place_name": "Palazzo Bembo", "vulnerability": 0.7, "coordinates": {"lon": 12.3352147, "lat": 45.4369212}}, "success": false}
{"sender": "venice_068", "receiver": "venice_115", "tick": 65, "intent": "request_support", "payload": {"need": "protection", "urgency": "critical", "place_name": "Palazzo Bembo", "vulnerability": 0.7, "coordinates": {"lon": 12.3352147, "lat": 45.4369212}}, "success": true}
{"sender": "venice_068", "receiver": "venice_053", "tick": 65, "intent": "request_support", "payload": {"need": "drainage", "urgency": "critical", "place_name": "Palazzo Bembo", "vulnerability": 0.7, "coordinates": {"lon": 12.3352147, "lat": 45.4369212}}, "success": true}
{"sender": "venice_068", "receiver": "venice_057", "tick": 65, "intent": "request_support", "payload": {"need": "drainage", "urgency": "critical", "place_name": "Palazzo Bembo", "vulnerability": 0.7, "coordinates": {"lon": 12.3352147, "lat": 45.4369212}}, "success": true}
{"sender": "venice_068", "receiver": "venice_097", "tick": 65, "intent": "request_support", "payload": {"need": "drainage", "urgency": "critical", "place_name": "Palazzo Bembo", "vulnerability": 0.7, "coordinates": {"lon": 12.3352147, "lat": 45.4369212}}, "success": true}
{"sender": "venice_068", "receiver": "venice_114", "tick": 65, "intent": "request_support", "payload": {"need": "drainage", "urgency": "critical", "place_name": "Palazzo Bembo", "vulnerability": 0.7, "coordinates": {"lon": 12.3352147, "lat": 45.4369212}}, "success": true}
{"sender": "venice_068", "receiver": "venice_115", "tick": 65, "intent": "request_support", "payload": {"need": "drainage", "urgency": "critical", "place_name": "Palazzo Bembo", "vulnerability": 0.7, "coordinates": {"lon": 12.3352147, "lat": 45.4369212}}, "success": false}
{"sender": "venice_068", "receiver": "venice_053", "tick": 65, "intent": "request_support", "payload": {"need": "structural_support", "urgency": "critical", "place_name": "Palazzo Bembo", "vulnerability": 0.7, "coordinates": {"lon": 12.3352147, "lat": 45.4369212}}, "success": true}
{"sender": "venice_068", "receiver": "venice_057", "tick": 65, "intent": "request_support", "payload": {"need": "structural_support", "urgency": "critical", "place_name": "Palazzo Bembo", "vulnerability": 0.7, "coordinates": {"lon": 12.3352147, "lat": 45.4369212}}, "success": true}
{"sender": "venice_068", "receiver": "venice_097", "tick": 65, "intent": "request_support", "payload": {"need": "structural_support", "urgency": "critical", "place_name": "Palazzo Bembo", "vulnerability": 0.7, "coordinates": {"lon": 12.3352147, "lat": 45.4369212}}, "success": true}
{"sender": "venice_068", "receiver": "venice_114", "tick": 65, "intent": "request_support", "payload": {"need": "structural_support", "urgency": "critical", "place_name": "Palazzo Bembo", "vulnerability": 0.7, "coordinates": {"lon": 12.3352147, "lat": 45.4369212}}, "success": true}
{"sender": "venice_068", "receiver": "venice_115", "tick": 65, "intent": "request_support", "payload": {"need": "structural_support", "urgency": "critical", "place_name": "Palazzo Bembo", "vulnerability": 0.7, "coordinates": {"lon": 12.3352147, "lat": 45.4369212}}, "success": true}
{"sender": "venice_086", "receiver": "venice_077", "tick": 65, "intent": "request_support", "payload": {"need": "power", "urgency": "critical", "place_name": "Gran Viale", "vulnerability": 0.5, "coordinates": {"lon": 12.3722296, "lat": 45.4159384}}, "success": true}
{"sender": "venice_086", "receiver": "venice_053", "tick": 65, "intent": "request_support", "payload": {"need": "communication", "urgency": "critical", "place_name": "Gran Viale", "vulnerability": 0.5, "coordinates": {"lon": 12.3722296, "lat": 45.4159384}}, "success": true}
{"sender": "venice_086", "receiver": "venice_057", "tick": 65, "intent": "request_support", "payload": {"need": "communication", "urgency": "critical", "place_name": "Gran Viale", "vulnerability": 0.5, "coordinates": {"lon": 12.3722296, "lat": 45.4159384}}, "success": true}
{"sender": "venice_086", "receiver": "venice_097", "tick": 65, "intent": "request_support", "payload": {"need": "communication", "urgency": "critical", "place_name": "Gran Viale", "vulnerability": 0.5, "coordinates": {"lon": 12.3722296, "lat": 45.4159384}}, "success": true}
{"sender": "venice_086", "receiver": "venice_114", "tick": 65, "intent": "request_support", "payload": {"need": "communication", "urgency": "critical", "place_name": "Gran Viale", "vulnerability": 0.5, "coordinates": {"lon": 12.3722296, "lat": 45.4159384}}, "success": true}
{"sender": "venice_086", "receiver": "venice_115", "tick": 65, "intent": "request_support", "payload": {"need": "communication", "urgency": "critical", "place_name": "Gran Viale", "vulnerability": 0.5, "coordinates": {"lon": 12.3722296, "lat": 45.4159384}}, "success": true}
{"sender": "venice_036", "receiver": "venice_077", "tick": 65, "intent": "request_support", "payload": {"need": "power", "urgency": "critical", "place_name": "Gallo Bragadin", "vulnerability": 0.5, "coordinates": {"lon": 12.3675881, "lat": 45.4132702}}, "success": true}
{"sender": "venice_036", "receiver": "venice_053", "tick": 65, "intent": "request_support", "payload": {"need": "communication", "urgency": "critical", "place_name": "Gallo Bragadin", "vulnerability": 0.5, "coordinates": {"lon": 12.3675881, "lat": 45.4132702}}, "success": false}
{"sender": "venice_036", "receiver": "venice_057", "tick": 65, "intent": "request_support", "payload": {"need": "communication", "urgency": "critical", "place_name": "Gallo Bragadin", "vulnerability": 0.5, "coordinates": {"lon": 12.3675881, "lat": 45.4132702}}, "success": true}
{"sender": "venice_036", "receiver": "venice_097", "tick": 65, "intent": "request_support", "payload": {"need": "communication", "urgency": "critical", "place_name": "Gallo Bragadin", "vulnerability": 0.5, "coordinates": {"lon": 12.3675881, "lat": 45.4132702}}, "success": false}
{"sender": "venice_036", "receiver": "venice_114", "tick": 65, "intent": "request_support", "payload": {"need": "communication", "urgency": "critical", "place_name": "Gallo Bragadin", "vulnerability": 0.5, "coordinates": {"lon": 12.3675881, "lat": 45.4132702}}, "success": true}
{"sender": "venice_036", "receiver": "venice_115", "tick": 65, "intent": "request_support", "payload": {"need": "communication", "urgency": "critical", "place_name": "Gallo Bragadin", "vulnerability": 0.5, "coordinates": {"lon": 12.3675881, "lat": 45.4132702}}, "success": true}
{"sender": "venice_067", "receiver": "venice_053", "tick": 65, "intent": "request_support", "payload": {"need": "protection", "urgency": "critical", "place_name": "La Biennale di Venezia - Arsenale", "vulnerability": 0.7, "coordinates": {"lon": 12.3505813, "lat": 45.4334767}}, "success": true}
{"sender": "venice_067", "receiver": "venice_057", "tick": 65, "intent": "request_support", "payload": {"need": "protection", "urgency": "critical", "place_name": "La Biennale di Venezia - Arsenale", "vulnerability": 0.7, "coordinates": {"lon": 12.3505813, "lat": 45.4334767}}, "success": true}
{"sender": "venice_067", "receiver": "venice_097", "tick": 65, "intent": "request_support", "payload": {"need": "protection", "urgency": "critical", "place_name": "La Biennale di Venezia - Arsenale", "vulnerability": 0.7, "coordinates": {"lon": 12.3505813, "lat": 45.4334767}}, "success": true}
{"sender": "venice_067", "receiver": "venice_114", "tick": 65, "intent": "request_support", "payload": {"need": "protection", "urgency": "critical", "place_name": "La Biennale di Venezia - Arsenale", "vulnerability": 0.7, "coordinates": {"lon": 12.3505813, "lat": 45.4334767}}, "success": true}
{"sender": "venice_067", "receiver": "venice_115", "tick": 65, "intent": "request_support", "payload": {"need": "protection", "urgency": "critical", "place_name": "La Biennale di Venezia - Arsenale", "vulnerability": 0.7, "coordinates": {"lon": 12.3505813, "lat": 45.4334767}}, "success": true}
{"sender": "venice_067", "receiver": "venice_053", "tick": 65, "intent": "request_support", "payload": {"need": "drainage", "urgency": "critical", "place_name": "La Biennale di Venezia - Arsenale", "vulnerability": 0.7, "coordinates": {"lon": 12.3505813, "lat": 45.4334767}}, "success": true}
{"sender": "venice_067", "receiver": "venice_057", "tick": 65, "intent": "request_support", "payload": {"need": "drainage", "urgency": "critical", "place_name": "La Biennale di Venezia - Arsenale", "vulnerability": 0.7, "coordinates": {"lon": 12.3505813, "lat": 45.4334767}}, "success": true}
{"sender": "venice_067", "receiver": "venice_097", "tick": 65, "intent": "request_support", "payload": {"need": "drainage", "urgency": "critical", "place_name": "La Biennale di Venezia - Arsenale", "vulnerability": 0.7, "coordinates": {"lon": 12.3505813, "lat": 45.4334767}}, "success": false}
{"sender": "venice_067", "receiver": "venice_114", "tick": 65, "intent": "request_support", "payload": {"need": "drainage", "urgency": "critical", "place_name": "La Biennale di Venezia - Arsenale", "vulnerability": 0.7, "coordinates": {"lon": 12.3505813, "lat": 45.4334767}}, "success": true}
{"sender": "venice_067", "receiver": "venice_115", "tick": 65, "intent": "request_support", "payload": {"need": "drainage", "urgency": "critical", "place_name": "La Biennale di Venezia - Arsenale", "vulnerability": 0.7, "coordinates": {"lon": 12.3505813, "lat": 45.4334767}}, "success": false}
{"sender": "venice_067", "receiver": "venice_053", "tick": 65, "intent": "request_support", "payload": {"need": "structural_support", "urgency": "critical", "place_name": "La Biennale di Venezia - Arsenale", "vulnerability": 0.7, "coordinates": {"lon": 12.3505813, "lat": 45.4334767}}, "success": true}
{"sender": "venice_067", "receiver": "venice_057", "tick": 65, "intent": "request_support", "payload": {"need": "structural_support", "urgency": "critical", "place_name": "La Biennale di Venezia - Arsenale", "vulnerability": 0.7, "coordinates": {"lon": 12.3505813, "lat": 45.4334767}}, "success": true}
{"sender": "venice_067", "receiver": "venice_097", "tick": 65, "intent": "request_support", "payload": {"need": "structural_support", "urgency": "critical", "place_name": "La Biennale di Venezia - Arsenale", "vulnerability": 0.7, "coordinates": {"lon": 12.3505813, "lat": 45.4334767}}, "success": true}
{"sender": "venice_067", "receiver": "venice_114", "tick": 65, "intent": "request_support", "payload": {"need": "structural_support", "urgency": "critical", "place_name": "La Biennale di Venezia - Arsenale", "vulnerability": 0.7, "coordinates": {"lon": 12.3505813, "lat": 45.4334767}}, "success": true}
{"sender": "venice_067", "receiver": "venice_115", "tick": 65, "intent": "request_support", "payload": {"need": "structural_support", "urgency": "critical", "place_name": "La Biennale di Venezia - Arsenale", "vulnerability": 0.7, "coordinates": {"lon": 12.3505813, "lat": 45.4334767}}, "success": true}
{"sender": "venice_102", "receiver": "venice_077", "tick": 65, "intent": "request_support", "payload": {"need": "power", "urgency": "critical", "place_name": "Polizia Municipale Sezione Cannaregio", "vulnerability": 0.5, "coordinates": {"lon": 12.321704, "lat": 45.4432379}}, "success": true}
{"sender": "venice_102", "receiver": "venice_053", "tick": 65, "intent": "request_support", "payload": {"need": "communication", "urgency": "critical", "place_name": "Polizia Municipale Sezione Cannaregio", "vulnerability": 0.5, "coordinates": {"lon": 12.321704, "lat": 45.4432379}}, "success": true}
{"sender": "venice_102", "receiver": "venice_057", "tick": 65, "intent": "request_support", "payload": {"need": "communication", "urgency": "critical", "place_name": "Polizia Municipale Sezione Cannaregio", "vulnerability": 0.5, "coordinates": {"lon": 12.321704, "lat": 45.4432379}}, "success": true}
{"sender": "venice_102", "receiver": "venice_097", "tick": 65, "intent": "request_support", "payload": {"need": "communication", "urgency": "critical", "place_name": "Polizia Municipale Sezione Cannaregio", "vulnerability": 0.5, "coordinates": {"lon": 12.321704, "lat": 45.4432379}}, "success": true}
{"sender": "venice_102", "receiver": "venice_114", "tick": 65, "intent": "request_support", "payload": {"need": "communication", "urgency": "critical", "place_name": "Polizia Municipale Sezione Cannaregio", "vulnerability": 0.5, "coordinates": {"lon": 12.321704, "lat": 45.4432379}}, "success": true}
{"sender": "venice_102", "receiver": "venice_115", "tick": 65, "intent": "request_support", "payload": {"need": "communication", "urgency": "critical", "place_name": "Polizia Municipale Sezione Cannaregio", "vulnerability": 0.5, "coordinates": {"lon": 12.321704, "lat": 45.4432379}}, "success": true}
{"sender": "venice_075", "receiver": "venice_053", "tick": 65, "intent": "request_support", "payload": {"need": "protection", "urgency": "critical", "place_name": "TIM Future Center", "vulnerability": 0.7, "coordinates": {"lon": 12.3361098, "lat": 45.4367261}}, "success": false}
{"sender": "venice_075", "receiver": "venice_057", "tick": 65, "intent": "request_support", "payload": {"need": "protection", "urgency": "critical", "place_name": "TIM Future Center", "vulnerability": 0.7, "coordinates": {"lon": 12.3361098, "lat": 45.4367261}}, "success": true}
{"sender": "venice_075", "receiver": "venice_097", "tick": 65, "intent": "request_support", "payload": {"need": "protection", "urgency": "critical", "place_name": "TIM Future Center", "vulnerability": 0.7, "coordinates": {"lon": 12.3361098, "lat": 45.4367261}}, "success": true}
{"sender": "venice_075", "receiver": "venice_114", "tick": 65, "intent": "request_support", "payload": {"need": "protection", "urgency": "critical", "place_name": "TIM Future Center", "vulnerability": 0.7, "coordinates": {"lon": 12.3361098, "lat": 45.4367261}}, "success": true}
{"sender": "venice_075", "receiver": "venice_115", "tick": 65, "intent": "request_support", "payload": {"need": "protection", "urgency": "critical", "place_name": "TIM Future Center", "vulnerability": 0.7, "coordinates": {"lon": 12.3361098, "lat": 45.4367261}}, "success": true}
{"sender": "venice_075", "receiver": "venice_053", "tick": 65, "intent": "request_support", "payload": {"need": "drainage", "urgency": "critical", "place_name": "TIM Future Center", "vulnerability": 0.7, "coordinates": {"lon": 12.3361098, "lat": 45.4367261}}, "success": false}
{"sender": "venice_075", "receiver": "venice_057", "tick": 65, "intent": "request_support", "payload": {"need": "drainage", "urgency": "critical", "place_name": "TIM Future Center", "vulnerability": 0.7, "coordinates": {"lon": 12.3361098, "lat": 45.4367261}}, "success": false}
{"sender": "venice_075", "receiver": "venice_097", "tick": 65, "intent": "request_support", "payload": {"need": "drainage", "urgency": "critical", "place_name": "TIM Future Center", "vulnerability": 0.7, "coordinates": {"lon": 12.3361098, "lat": 45.4367261}}, "success": true}
{"sender": "venice_075", "receiver": "venice_114", "tick": 65, "intent": "request_support", "payload": {"need": "drainage", "urgency": "critical", "place_name": "TIM Future Center", "vulnerability": 0.7, "coordinates": {"lon": 12.3361098, "lat": 45.4367261}}, "success": true}
{"sender": "venice_075", "receiver": "venice_115", "tick": 65, "intent": "request_support", "payload": {"need": "drainage", "urgency": "critical", "place_name": "TIM Future Center", "vulnerability": 0.7, "coordinates": {"lon": 12.3361098, "lat": 45.4367261}}, "success": true}
{"sender": "venice_075", "receiver": "venice_053", "tick": 65, "intent": "request_support", "payload": {"need": "structural_support", "urgency": "critical", "place_name": "TIM Future Center", "vulnerability": 0.7, "coordinates": {"lon": 12.3361098, "lat": 45.4367261}}, "success": true}
{"sender": "venice_075", "receiver": "venice_057", "tick": 65, "intent": "request_support", "payload": {"need": "structural_support", "urgency": "critical", "place_name": "TIM Future Center", "vulnerability": 0.7, "coordinates": {"lon": 12.3361098, "lat": 45.4367261}}, "success": true}
{"sender": "venice_075", "receiver": "venice_097", "tick": 65, "intent": "request_support", "payload": {"need": "structural_support", "urgency": "critical", "place_name": "TIM Future Center", "vulnerability": 0.7, "coordinates": {"lon": 12.3361098, "lat": 45.4367261}}, "success": true}
{"sender": "venice_075", "receiver": "venice_114", "tick": 65, "intent": "request_support", "payload": {"need": "structural_support", "urgency": "critical", "place_name": "TIM Future Center", "vulnerability": 0.7, "coordinates": {"lon": 12.3361098, "lat": 45.4367261}}, "success": true}
{"sender": "venice_075", "receiver": "venice_115", "tick": 65, "intent": "request_support", "payload": {"need": "structural_support", "urgency": "critical", "place_name": "TIM Future Center", "vulnerability": 0.7, "coordinates": {"lon": 12.3361098, "lat": 45.4367261}}, "success": true}
{"sender": "venice_121", "receiver": "venice_077", "tick": 65, "intent": "request_support", "payload": {"need": "power", "urgency": "critical", "place_name": "Laboratorio Analisi San Polo", "vulnerability": 0.6, "coordinates": {"lon": 12.3325, "lat": 45.4385}}, "success": true}
{"sender": "venice_018", "receiver": "venice_053", "tick": 65, "intent": "request_support", "payload": {"need": "protection", "urgency": "critical", "place_name": "Palazzo Loredan dell'Ambasciatore", "vulnerability": 0.7, "coordinates": {"lon": 12.3270976, "lat": 45.4326213}}, "success": true}
{"sender": "venice_018", "receiver": "venice_057", "tick": 65, "intent": "request_support", "payload": {"need": "protection", "urgency": "critical", "place_name": "Palazzo Loredan dell'Ambasciatore", "vulnerability": 0.7, "coordinates": {"lon": 12.3270976, "lat": 45.4326213}}, "success": true}
{"sender": "venice_018", "receiver": "venice_097", "tick": 65, "intent": "request_support", "payload": {"need": "protection", "urgency": "critical", "place_name": "Palazzo Loredan dell'Ambasciatore", "vulnerability": 0.7, "coordinates": {"lon": 12.3270976, "lat": 45.4326213}}, "success": true}
{"sender": "venice_018", "receiver": "venice_114", "tick": 65, "intent": "request_support", "payload": {"need": "protection", "urgency": "critical", "place_name": "Palazzo Loredan dell'Ambasciatore", "vulnerability": 0.7, "coordinates": {"lon": 12.3270976, "lat": 45.4326213}}, "success": false}
{"sender": "venice_018", "receiver": "venice_115", "tick": 65, "intent": "request_support", "payload": {"need": "protection", "urgency": "critical", "place_name": "Palazzo Loredan dell'Ambasciatore", "vulnerability": 0.7, "coordinates": {"lon": 12.3270976, "lat": 45.4326213}}, "success": true}
{"sender": "venice_018", "receiver": "venice_053", "tick": 65, "intent": "request_support", "payload": {"need": "drainage", "urgency": "critical", "place_name": "Palazzo Loredan dell'Ambasciatore", "vulnerability": 0.7, "coordinates": {"lon": 12.3270976, "lat": 45.4326213}}, "success": true}
{"sender": "venice_018", "receiver": "venice_057", "tick": 65, "intent": "request_support", "payload": {"need": "drainage", "urgency": "critical", "place_name": "Palazzo Loredan dell'Ambasciatore", "vulnerability": 0.7, "coordinates": {"lon": 12.3270976, "lat": 45.4326213}},